
[ICM General Parameters]
MGI RWA Section Options=2.0.1 %04Y%02m%02d %02H%02M%S%25u*~|.%d*~|.,*~|.%#_13g
Data Stream Name=GPS GGA data
Version=0
Author=Davita
Description=GPS data 
Comments=
Date=3687145200
Time=38552.37814951
Location=
# of Records=2435

[Query Name]
MGI RWA Section Options=2.0.1 %04Y%02m%02d %02H%02M%S%25u*~|.%d*~|.,*~|.%#_13g
name=No Query

[No Query]
MGI RWA Section Options=2.0.1 %04Y%02m%02d %02H%02M%S%25u*~|.%d*~|.,*~|.%#_13g
null=0

[Bus Name]
MGI RWA Section Options=2.0.1 %04Y%02m%02d %02H%02M%S%25u*~|.%d*~|.,*~|.%#_13g
name=Serial

[Serial]
MGI RWA Section Options=2.0.1 %04Y%02m%02d %02H%02M%S%25u*~|.%d*~|.,*~|.%#_13g
Port=4
Baud Rate=115200
Data Bits=8
Parity=None
Stop Bits=10
Flow Control=0
Char/Record=0
Termination String=
ms Wait=995
Time-out (1000ms)=1000
Clear Buffer on Open?=FALSE

[Parser Name]
MGI RWA Section Options=2.0.1 %04Y%02m%02d %02H%02M%S%25u*~|.%d*~|.,*~|.%#_13g
name=Multi Sentence Parser

[Multi Sentence Parser]
MGI RWA Section Options=2.0.1 %04Y%02m%02d %02H%02M%S%25u*~|.%d*~|.,*~|.%#_13g
Sentences=<7>
Sentences 0.Sentence.Sentence ID=$GPRMC
Sentences 0.Sentence.Format String=$GPRMC,%f,%s,%f,%s,%f,%s,%s,%f,%f,%f,%s
Sentences 0.Sentence.Channels=<7>
Sentences 0.Sentence.Channels 0=UTC Time
Sentences 0.Sentence.Channels 1=Latitiude
Sentences 0.Sentence.Channels 2=Longititude
Sentences 0.Sentence.Channels 3=Course Over Ground
Sentences 0.Sentence.Channels 4=UTS Date of Pos
Sentences 0.Sentence.Channels 5=Magnetic Variation
Sentences 0.Sentence.Channels 6=
Sentences 0.Sentence.Enabled=<7>
Sentences 0.Sentence.Enabled 0=TRUE
Sentences 0.Sentence.Enabled 1=TRUE
Sentences 0.Sentence.Enabled 2=TRUE
Sentences 0.Sentence.Enabled 3=TRUE
Sentences 0.Sentence.Enabled 4=TRUE
Sentences 0.Sentence.Enabled 5=TRUE
Sentences 0.Sentence.Enabled 6=FALSE
Sentences 0.Sentence.Ignore Missing Sentences?=TRUE
Sentences 1.Sentence.Sentence ID=$GPGGA
Sentences 1.Sentence.Format String=$GPGGA,%2d%2d%2d,%f,%s,%f,%s,%f,%f,%f,%f,%f,%s,%s,%s
Sentences 1.Sentence.Channels=<10>
Sentences 1.Sentence.Channels 0=Hour
Sentences 1.Sentence.Channels 1=Minute
Sentences 1.Sentence.Channels 2=Second
Sentences 1.Sentence.Channels 3=Lat
Sentences 1.Sentence.Channels 4=Long
Sentences 1.Sentence.Channels 5=Quality
Sentences 1.Sentence.Channels 6=Satellites
Sentences 1.Sentence.Channels 7=Horizontal Dilution
Sentences 1.Sentence.Channels 8=Antenna Height
Sentences 1.Sentence.Channels 9=Geoidal Height
Sentences 1.Sentence.Enabled=<10>
Sentences 1.Sentence.Enabled 0=TRUE
Sentences 1.Sentence.Enabled 1=TRUE
Sentences 1.Sentence.Enabled 2=TRUE
Sentences 1.Sentence.Enabled 3=TRUE
Sentences 1.Sentence.Enabled 4=TRUE
Sentences 1.Sentence.Enabled 5=TRUE
Sentences 1.Sentence.Enabled 6=TRUE
Sentences 1.Sentence.Enabled 7=TRUE
Sentences 1.Sentence.Enabled 8=TRUE
Sentences 1.Sentence.Enabled 9=TRUE
Sentences 1.Sentence.Ignore Missing Sentences?=TRUE
Sentences 2.Sentence.Sentence ID=$GPGSA
Sentences 2.Sentence.Format String=$GPGSA,%s,%f,%f,%f,%f,%f,%f,%f,%f,%f,%f,%f,%f,%f,%f,%f,%s
Sentences 2.Sentence.Channels=<19>
Sentences 2.Sentence.Channels 0=Fix Type
Sentences 2.Sentence.Channels 1=PRN1
Sentences 2.Sentence.Channels 2=PRN2
Sentences 2.Sentence.Channels 3=PRN3
Sentences 2.Sentence.Channels 4=PRN4
Sentences 2.Sentence.Channels 5=PRN5
Sentences 2.Sentence.Channels 6=PRN6
Sentences 2.Sentence.Channels 7=PRN7
Sentences 2.Sentence.Channels 8=PRN8
Sentences 2.Sentence.Channels 9=PRN9
Sentences 2.Sentence.Channels 10=PRN10
Sentences 2.Sentence.Channels 11=PRN11
Sentences 2.Sentence.Channels 12=PRN12
Sentences 2.Sentence.Channels 13=Position Dilution
Sentences 2.Sentence.Channels 14=Horizontal Dilution
Sentences 2.Sentence.Channels 15=Vertical Dilution
Sentences 2.Sentence.Channels 16=
Sentences 2.Sentence.Channels 17=
Sentences 2.Sentence.Channels 18=
Sentences 2.Sentence.Enabled=<19>
Sentences 2.Sentence.Enabled 0=TRUE
Sentences 2.Sentence.Enabled 1=TRUE
Sentences 2.Sentence.Enabled 2=TRUE
Sentences 2.Sentence.Enabled 3=TRUE
Sentences 2.Sentence.Enabled 4=TRUE
Sentences 2.Sentence.Enabled 5=TRUE
Sentences 2.Sentence.Enabled 6=TRUE
Sentences 2.Sentence.Enabled 7=TRUE
Sentences 2.Sentence.Enabled 8=TRUE
Sentences 2.Sentence.Enabled 9=TRUE
Sentences 2.Sentence.Enabled 10=TRUE
Sentences 2.Sentence.Enabled 11=TRUE
Sentences 2.Sentence.Enabled 12=TRUE
Sentences 2.Sentence.Enabled 13=TRUE
Sentences 2.Sentence.Enabled 14=TRUE
Sentences 2.Sentence.Enabled 15=TRUE
Sentences 2.Sentence.Enabled 16=FALSE
Sentences 2.Sentence.Enabled 17=FALSE
Sentences 2.Sentence.Enabled 18=FALSE
Sentences 2.Sentence.Ignore Missing Sentences?=TRUE
Sentences 3.Sentence.Sentence ID=$GPGSV,3,1
Sentences 3.Sentence.Format String=$GPGSV,3,1,%f,%f,%f,%f,%f,%f,%f,%f,%f,%f,%f,%f,%f,%f,%f,%f,%s
Sentences 3.Sentence.Channels=<17>
Sentences 3.Sentence.Channels 0=Satellites in View
Sentences 3.Sentence.Channels 1=PRN 1
Sentences 3.Sentence.Channels 2=Sat Elev 1
Sentences 3.Sentence.Channels 3=Sat Az 1
Sentences 3.Sentence.Channels 4=Signal to Noise 1
Sentences 3.Sentence.Channels 5=PRN 2
Sentences 3.Sentence.Channels 6=Sat Elev 2
Sentences 3.Sentence.Channels 7=Sat Az 2
Sentences 3.Sentence.Channels 8=Signal to Noise 2
Sentences 3.Sentence.Channels 9=PRN 3
Sentences 3.Sentence.Channels 10=Sat Elev 3
Sentences 3.Sentence.Channels 11=Sat Az 3
Sentences 3.Sentence.Channels 12=Signal to Noise 3
Sentences 3.Sentence.Channels 13=PRN 4
Sentences 3.Sentence.Channels 14=Sat Elev 4
Sentences 3.Sentence.Channels 15=Sat Az 4
Sentences 3.Sentence.Channels 16=Signal to Noise 4
Sentences 3.Sentence.Enabled=<17>
Sentences 3.Sentence.Enabled 0=FALSE
Sentences 3.Sentence.Enabled 1=TRUE
Sentences 3.Sentence.Enabled 2=TRUE
Sentences 3.Sentence.Enabled 3=TRUE
Sentences 3.Sentence.Enabled 4=TRUE
Sentences 3.Sentence.Enabled 5=TRUE
Sentences 3.Sentence.Enabled 6=TRUE
Sentences 3.Sentence.Enabled 7=TRUE
Sentences 3.Sentence.Enabled 8=TRUE
Sentences 3.Sentence.Enabled 9=TRUE
Sentences 3.Sentence.Enabled 10=TRUE
Sentences 3.Sentence.Enabled 11=TRUE
Sentences 3.Sentence.Enabled 12=TRUE
Sentences 3.Sentence.Enabled 13=TRUE
Sentences 3.Sentence.Enabled 14=TRUE
Sentences 3.Sentence.Enabled 15=TRUE
Sentences 3.Sentence.Enabled 16=TRUE
Sentences 3.Sentence.Ignore Missing Sentences?=TRUE
Sentences 4.Sentence.Sentence ID=$GPGSV,3,2
Sentences 4.Sentence.Format String=$GPGSV,3,2,%f,%f,%f,%f,%f,%f,%f,%f,%f,%f,%f,%f,%f,%f,%f,%f,%s
Sentences 4.Sentence.Channels=<17>
Sentences 4.Sentence.Channels 0=Satellites in View
Sentences 4.Sentence.Channels 1=PRN 5
Sentences 4.Sentence.Channels 2=Sat Elev 5
Sentences 4.Sentence.Channels 3=Sat Az 5
Sentences 4.Sentence.Channels 4=Signal to Noise 5
Sentences 4.Sentence.Channels 5=PRN 6
Sentences 4.Sentence.Channels 6=Sat Elev 6
Sentences 4.Sentence.Channels 7=Sat Az 6
Sentences 4.Sentence.Channels 8=Signal to Noise 6
Sentences 4.Sentence.Channels 9=PRN 7
Sentences 4.Sentence.Channels 10=Sat Elev 7
Sentences 4.Sentence.Channels 11=Sat Az 7
Sentences 4.Sentence.Channels 12=Signal to Noise 7
Sentences 4.Sentence.Channels 13=PRN 8
Sentences 4.Sentence.Channels 14=Sat Elev 8
Sentences 4.Sentence.Channels 15=Sat Az 8
Sentences 4.Sentence.Channels 16=Signal to Noise 8
Sentences 4.Sentence.Enabled=<17>
Sentences 4.Sentence.Enabled 0=FALSE
Sentences 4.Sentence.Enabled 1=TRUE
Sentences 4.Sentence.Enabled 2=TRUE
Sentences 4.Sentence.Enabled 3=TRUE
Sentences 4.Sentence.Enabled 4=TRUE
Sentences 4.Sentence.Enabled 5=TRUE
Sentences 4.Sentence.Enabled 6=TRUE
Sentences 4.Sentence.Enabled 7=TRUE
Sentences 4.Sentence.Enabled 8=TRUE
Sentences 4.Sentence.Enabled 9=TRUE
Sentences 4.Sentence.Enabled 10=TRUE
Sentences 4.Sentence.Enabled 11=TRUE
Sentences 4.Sentence.Enabled 12=TRUE
Sentences 4.Sentence.Enabled 13=TRUE
Sentences 4.Sentence.Enabled 14=TRUE
Sentences 4.Sentence.Enabled 15=TRUE
Sentences 4.Sentence.Enabled 16=TRUE
Sentences 4.Sentence.Ignore Missing Sentences?=TRUE
Sentences 5.Sentence.Sentence ID=$GPGSV,3,3,
Sentences 5.Sentence.Format String=$GPGSV,3,3,%f,%f,%f,%f,%f,%f,%f,%f,%f,%f,%f,%f,%f,%f,%f,%f,%s
Sentences 5.Sentence.Channels=<17>
Sentences 5.Sentence.Channels 0=Total Number of Satellites
Sentences 5.Sentence.Channels 1=PRN 9
Sentences 5.Sentence.Channels 2=Sat Elev 9
Sentences 5.Sentence.Channels 3=Sat Az 9
Sentences 5.Sentence.Channels 4=Signal to Noise 9
Sentences 5.Sentence.Channels 5=PRN 10
Sentences 5.Sentence.Channels 6=Sat Elev 10
Sentences 5.Sentence.Channels 7=Sat Az 10
Sentences 5.Sentence.Channels 8=Signal to Noise 10
Sentences 5.Sentence.Channels 9=PRN 11
Sentences 5.Sentence.Channels 10=Sat Elev 11
Sentences 5.Sentence.Channels 11=Sat Az 11
Sentences 5.Sentence.Channels 12=Signal to Noise 11
Sentences 5.Sentence.Channels 13=PRN 12
Sentences 5.Sentence.Channels 14=Sat Elev 12
Sentences 5.Sentence.Channels 15=Sat Az 12
Sentences 5.Sentence.Channels 16=Signal to Noise 12
Sentences 5.Sentence.Enabled=<17>
Sentences 5.Sentence.Enabled 0=FALSE
Sentences 5.Sentence.Enabled 1=TRUE
Sentences 5.Sentence.Enabled 2=TRUE
Sentences 5.Sentence.Enabled 3=TRUE
Sentences 5.Sentence.Enabled 4=TRUE
Sentences 5.Sentence.Enabled 5=TRUE
Sentences 5.Sentence.Enabled 6=TRUE
Sentences 5.Sentence.Enabled 7=TRUE
Sentences 5.Sentence.Enabled 8=TRUE
Sentences 5.Sentence.Enabled 9=TRUE
Sentences 5.Sentence.Enabled 10=TRUE
Sentences 5.Sentence.Enabled 11=TRUE
Sentences 5.Sentence.Enabled 12=TRUE
Sentences 5.Sentence.Enabled 13=TRUE
Sentences 5.Sentence.Enabled 14=TRUE
Sentences 5.Sentence.Enabled 15=TRUE
Sentences 5.Sentence.Enabled 16=TRUE
Sentences 5.Sentence.Ignore Missing Sentences?=TRUE
Sentences 6.Sentence.Sentence ID=$GPVTG
Sentences 6.Sentence.Format String=$GPVTG,%d
Sentences 6.Sentence.Channels=<1>
Sentences 6.Sentence.Channels 0=GPVTG present?
Sentences 6.Sentence.Enabled=<1>
Sentences 6.Sentence.Enabled 0=TRUE
Sentences 6.Sentence.Ignore Missing Sentences?=TRUE

[Query]
MGI RWA Section Options=2.0.1 %04Y%02m%02d %02H%02M%S%25u*~|.%d*~|.,*~|.%#_13g
Value=1000

[Polynomial]
MGI RWA Section Options=2.0.1 %04Y%02m%02d %02H%02M%S%25u*~|.%d*~|.,*~|.%#_13g
Polynomials=<1>
Polynomials 0.Cluster.Instance=1/100th
Polynomials 0.Cluster.Polynomial=<2>0,0.01

[Scaling]
MGI RWA Section Options=2.0.1 %04Y%02m%02d %02H%02M%S%25u*~|.%d*~|.,*~|.%#_13g
Value=<3>
Value 0.Scaling.Channel=1
Value 0.Scaling.Scaling=Lookup Table
Value 0.Scaling.Instance=hello
Value 1.Scaling.Channel=Long
Value 1.Scaling.Scaling=Polynomial
Value 1.Scaling.Instance=1/100th
Value 2.Scaling.Channel=Lat
Value 2.Scaling.Scaling=Polynomial
Value 2.Scaling.Instance=1/100th

[Lookup Table]
MGI RWA Section Options=2.0.1 %04Y%02m%02d %02H%02M%S%25u*~|.%d*~|.,*~|.%#_13g
Tables=<2>
Tables 0.Cluster.Instance=table
Tables 0.Cluster.Table=<4>
Tables 0.Cluster.Table 0.Cluster.Raw Value=15
Tables 0.Cluster.Table 0.Cluster.Scaled Value=10
Tables 0.Cluster.Table 1.Cluster.Raw Value=30
Tables 0.Cluster.Table 1.Cluster.Scaled Value=11
Tables 0.Cluster.Table 2.Cluster.Raw Value=40
Tables 0.Cluster.Table 2.Cluster.Scaled Value=20
Tables 0.Cluster.Table 3.Cluster.Raw Value=70
Tables 0.Cluster.Table 3.Cluster.Scaled Value=25
Tables 1.Cluster.Instance=hello
Tables 1.Cluster.Table=<4>
Tables 1.Cluster.Table 0.Cluster.Raw Value=17
Tables 1.Cluster.Table 0.Cluster.Scaled Value=0
Tables 1.Cluster.Table 1.Cluster.Raw Value=2000
Tables 1.Cluster.Table 1.Cluster.Scaled Value=40
Tables 1.Cluster.Table 2.Cluster.Raw Value=5000
Tables 1.Cluster.Table 2.Cluster.Scaled Value=70
Tables 1.Cluster.Table 3.Cluster.Raw Value=300000
Tables 1.Cluster.Table 3.Cluster.Scaled Value=700

[Modbus]
MGI RWA Section Options=2.0.1 %04Y%02m%02d %02H%02M%S%25u*~|.%d*~|.,*~|.%#_13g
Port=0
Modbus Server Name=localhost
Serial/Ethernet=FALSE
Baud Rate=0
Serial Type=RTU
Unit ID=0
Parity=0
Input Channels=<0>
Swap Words?=FALSE

[Initializer Name]
MGI RWA Section Options=2.0.1 %04Y%02m%02d %02H%02M%S%25u*~|.%d*~|.,*~|.%#_13g
name=String Init

[String Init]
MGI RWA Section Options=2.0.1 %04Y%02m%02d %02H%02M%S%25u*~|.%d*~|.,*~|.%#_13g
String=$PGRMO,GPVTG,1*24carriage*~|.returnline*~|.feed

[No Init]
MGI RWA Section Options=2.0.1 %04Y%02m%02d %02H%02M%S%25u*~|.%d*~|.,*~|.%#_13g
null=0

[Output Name]
MGI RWA Section Options=2.0.1 %04Y%02m%02d %02H%02M%S%25u*~|.%d*~|.,*~|.%#_13g
name=No Output

[NI Analog Out]
MGI RWA Section Options=2.0.1 %04Y%02m%02d %02H%02M%S%25u*~|.%d*~|.,*~|.%#_13g
Device=cDAQ1Mod4
SE/Diff=FALSE
Channels=<3>
Channels 0.Channel.Channel=0
Channels 0.Channel.Range=-10.0 to 10.0 V
Channels 1.Channel.Channel=1
Channels 1.Channel.Range=-10.0 to 10.0 V
Channels 2.Channel.Channel=2
Channels 2.Channel.Range=-10.0 to 10.0 V
AD Write Time-out (s)=0
Channel Names=<3>
Channel Names 0=ao1
Channel Names 1=ao2
Channel Names 2=ao3
Enabled=<3>
Enabled 0=TRUE
Enabled 1=TRUE
Enabled 2=TRUE

[No Output]
MGI RWA Section Options=2.0.1 %04Y%02m%02d %02H%02M%S%25u*~|.%d*~|.,*~|.%#_13g
null=0

[NI Analog]
MGI RWA Section Options=2.0.1 %04Y%02m%02d %02H%02M%S%25u*~|.%d*~|.,*~|.%#_13g
Device=
SE/Diff=FALSE
Channels=<0>
AD Read Time-out (s)=0

[Serial Out]
MGI RWA Section Options=2.0.1 %04Y%02m%02d %02H%02M%S%25u*~|.%d*~|.,*~|.%#_13g
String=
Channel Names=<0>
Enabled=<0>

[Multiple Queries]
MGI RWA Section Options=2.0.1 %04Y%02m%02d %02H%02M%S%25u*~|.%d*~|.,*~|.%#_13g
Queries=<0>
Time Between Queries (ms)=0
Response Separator=
   	#######
                 ‘?ð[Ê      …$GPRMC,174439,A,4008.1909,N,10506.9193,W,000.0,187.4,190301,008.7,E*6A
$GPGGA,174439,4008.1909,N,10506.9193,W,2,09,1.2,1530.3,M,-17.8,M,,*4F
$GPGSA,A,3,10,15,18,20,21,23,24,27,32,,,,2.0,1.2,1.6*3A
$GPGSV,3,1,11,10,69,340,31,15,10,051,16,18,36,140,35,20,57,069,16*71
$GPGSV,3,2,11,21,16,315,14,23,58,058,25,24,32,071,18,27,34,263,16*72
$GPGSV,3,3,11,32,49,223,33,04,45,141,00,13,35,214,00*44
$GPVTG,187.4,T,178.8,M,000.0,N,0000.0,K*72
$PGRMO,GPVTG,1*24
$GPRMC,174440,A,4008.1909,N,10506.9193,W,000.0,187.4,190301,008.7,E*64
$GPGGA,174440,4008.1909,N,10506.9193,W,2,09,1.2,1530.3,M,-17.8,M,,*41
$GPGSA,A,3,10,15,18,20,21,23,24,27,32,,,,2.0,1.2,1.6*3A
$GPGSV,3,1,11,10,69,340,31,15,10,051,16,18,36,140,35,20,57,069,16*71
$GPGSV,3,2,11,21,16,315,14,23,58,058,25,24,32,071,18,27,34,263,16*72
$GPGSV,3,3,11,32,49,223,33,04,45,141,00,13,35,214,00*44
$GPVTG,187.4,T,178.8,M,000.0,N,0000.0,K*72
  Å@ ŠP@     ¹$GPRMC,174441,A,4008.1910,N,10506.9193,W,000.0,187.4,190301,008.7,E*6D
$GPGGA,174441,4008.1910,N,10506.9193,W,2,09,1.2,1530.3,M,-17.8,M,,*48
$GPGSA,A,3,10,15,18,20,21,23,24,27,32,,,,2.0,1.2,1.6*3A
$GPGSV,3,1,11,10,69,340,31,15,10,051,16,18,36,140,35,20,57,069,16*71
$GPGSV,3,2,11,21,16,315,15,23,58,058,25,24,32,071,18,27,34,263,17*72
$GPGSV,3,3,11,32,49,223,33,04,45,141,00,13,35,214,00*44
$GPVTG,187.4,T,178.8,M,000.0,N,0000.0,K*72
  Å@ë@     ¹$GPRMC,174442,A,4008.1910,N,10506.9193,W,000.0,187.4,190301,008.7,E*6E
$GPGGA,174442,4008.1910,N,10506.9193,W,2,09,1.2,1530.3,M,-17.8,M,,*4B
$GPGSA,A,3,10,15,18,20,21,23,24,27,32,,,,2.0,1.2,1.6*3A
$GPGSV,3,1,11,10,69,340,31,15,10,051,16,18,36,140,35,20,57,069,16*71
$GPGSV,3,2,11,21,16,315,15,23,58,058,25,24,32,071,19,27,34,263,17*73
$GPGSV,3,3,11,32,49,223,33,04,45,141,00,13,35,214,00*44
$GPVTG,187.4,T,178.8,M,000.0,N,0000.0,K*72
  T@¥W      H$GPRMC,174443,A,4008.1910,N,10506.9193,W,000.0,187.4,190301,008.7,E*6F
$GPGGA,174443,4008.1910,N,10506.9193,W,2,09,1.2,1530.3,M,-17.8,M,,*4A
$GPGSA,A,3,10,15,18,20,21,23,24,27,32,,,,2.0,1.2,1.6*3A
$GPGSV,3,1,11,10,69,340,31,15,10,051,16,18,36,140,35,20,57,069,16*71
$GPGSV,3,2,11,21,16,315,15,23,58,058,25,24,32,071,20,27,34,263,18*76
$GPGSV,3,3,11,32,49,223,33,04,45,141,00,13,35,214,00*44
$GPVTG,187.4,T,178.8,M,000.0,N,0000.0,K*72
$GPRMC,174444,A,4008.1910,N,10506.9193,W,000.0,187.4,190301,008.7,E*68
$GPGGA,174444,4008.1910,N,10506.9193,W,2,10,1.0,1530.3,M,-17.8,M,,*47
  Ó@Ôn      Ç$GPGSA,A,3,10,11,15,18,20,21,23,24,27,32,,,1.7,1.0,1.4*3E
$GPGSV,3,1,11,10,69,340,31,11,06,320,17,15,10,051,16,18,36,140,35*78
$GPGSV,3,2,11,20,57,069,16,21,16,315,15,23,58,058,25,24,32,071,20*72
$GPGSV,3,3,11,27,34,263,18,32,49,223,33,04,45,141,00*4B
$GPVTG,187.4,T,178.8,M,000.0,N,0000.0,K*72
$GPRMC,174445,A,4008.1910,N,10506.9194,W,000.0,187.4,190301,008.7,E*6E
$GPGGA,174445,4008.1910,N,10506.9194,W,2,09,1.0,1530.3,M,-17.8,M,,*49
$GPGSA,A,3,10,,15,18,20,21,23,24,27,32,,,1.8,1.0,1.4*31
$GPGSV,3,1,11,10,69,340,31,11,06,320,17,15,10,051,16,18,36,140,35*78
$GPGSV,3,2,11,20,57,069,16,21,16,315,15,23,58,058,25,24,32,071,20*72
$GPGSV,3,3,11,27,34,263,19,32,49,223,33,04,45,141,00*4A
$GPVTG,187.4,T  ã@–@     ×,178.8,M,000.0,N,0000.0,K*72
$GPRMC,174446,A,4008.1910,N,10506.9194,W,000.0,187.4,190301,008.7,E*6D
$GPGGA,174446,4008.1910,N,10506.9194,W,2,09,1.0,1530.2,M,-17.8,M,,*4B
$GPGSA,A,3,10,,15,18,20,21,23,24,27,32,,,1.8,1.0,1.4*31
$GPGSV,3,1,11,10,69,340,31,11,06,320,17,15,10,051,16,18,36,140,35*78
$GPGSV,3,2,11,20,57,069,16,21,16,315,15,23,58,058,25,24,32,071,20*72
$GPGSV,3,3,11,27,34,263,19,32,49,223,33,04,45,141,00*4A
$GPVTG,187.4,T,178.8,M,000.0,N,0000.0,K*72
  Ç@4`     »$GPRMC,174447,A,4008.1910,N,10506.9194,W,000.0,187.4,190301,008.7,E*6C
$GPGGA,174447,4008.1910,N,10506.9194,W,2,10,1.0,1530.2,M,-17.8,M,,*42
$GPGSA,A,3,10,11,15,18,20,21,23,24,27,32,,,1.7,1.0,1.3*39
$GPGSV,3,1,11,10,69,340,31,11,06,320,16,15,10,051,16,18,36,140,35*79
$GPGSV,3,2,11,20,57,069,16,21,16,315,15,23,58,058,25,24,32,071,20*72
$GPGSV,3,3,11,27,34,263,20,32,49,223,33,04,45,141,00*40
$GPVTG,187.4,T,178.8,M,000.0,N,0000.0,K*72
  Ç@ ±ú°     »$GPRMC,174448,A,4008.1910,N,10506.9194,W,000.0,187.4,190301,008.7,E*63
$GPGGA,174448,4008.1910,N,10506.9194,W,2,10,1.0,1530.2,M,-17.8,M,,*4D
$GPGSA,A,3,10,11,15,18,20,21,23,24,27,32,,,1.7,1.0,1.3*39
$GPGSV,3,1,11,10,69,340,31,11,06,320,16,15,09,051,16,18,36,140,35*71
$GPGSV,3,2,11,20,57,069,16,21,16,315,15,23,58,058,25,24,32,071,20*72
$GPGSV,3,3,11,27,34,263,21,32,49,223,32,04,45,141,00*40
$GPVTG,187.4,T,178.8,M,000.0,N,0000.0,K*72
  Ç@"É¼p     »$GPRMC,174449,A,4008.1910,N,10506.9194,W,000.0,187.4,190301,008.7,E*62
$GPGGA,174449,4008.1910,N,10506.9194,W,2,10,1.0,1530.2,M,-17.8,M,,*4C
$GPGSA,A,3,10,11,15,18,20,21,23,24,27,32,,,1.7,1.0,1.3*39
$GPGSV,3,1,11,10,69,340,31,11,06,320,16,15,09,051,16,18,36,140,35*71
$GPGSV,3,2,11,20,57,069,16,21,16,315,15,23,58,058,26,24,32,071,20*71
$GPGSV,3,3,11,27,34,263,22,32,49,223,32,04,45,141,00*43
$GPVTG,187.4,T,178.8,M,000.0,N,0000.0,K*72
  Ç@$âa     »$GPRMC,174450,A,4008.1910,N,10506.9194,W,000.0,187.4,190301,008.7,E*6A
$GPGGA,174450,4008.1910,N,10506.9194,W,2,10,1.0,1530.2,M,-17.8,M,,*44
$GPGSA,A,3,10,11,15,18,20,21,23,24,27,32,,,1.7,1.0,1.3*39
$GPGSV,3,1,11,10,69,340,31,11,06,320,17,15,09,051,16,18,36,140,35*70
$GPGSV,3,2,11,20,57,069,16,21,16,315,15,23,58,058,26,24,32,071,21*70
$GPGSV,3,3,11,27,34,263,23,32,49,223,32,04,45,141,00*42
$GPVTG,187.4,T,178.8,M,000.0,N,0000.0,K*72
  Ç@&úä      »$GPRMC,174451,A,4008.1910,N,10506.9194,W,000.0,187.4,190301,008.7,E*6B
$GPGGA,174451,4008.1910,N,10506.9194,W,2,10,1.0,1530.2,M,-17.8,M,,*45
$GPGSA,A,3,10,11,15,18,20,21,23,24,27,32,,,1.7,1.0,1.3*39
$GPGSV,3,1,11,10,69,340,31,11,06,320,17,15,09,051,16,18,36,140,35*70
$GPGSV,3,2,11,20,57,069,16,21,16,315,15,23,58,058,26,24,32,071,21*70
$GPGSV,3,3,11,27,34,263,23,32,49,223,32,04,45,141,00*42
$GPVTG,187.4,T,178.8,M,000.0,N,0000.0,K*72
  Ç@)“      »$GPRMC,174452,A,4008.1910,N,10506.9194,W,000.0,187.4,190301,008.7,E*68
$GPGGA,174452,4008.1910,N,10506.9194,W,2,10,1.0,1530.2,M,-17.8,M,,*46
$GPGSA,A,3,10,11,15,18,20,21,23,24,27,32,,,1.7,1.0,1.3*39
$GPGSV,3,1,11,10,69,340,31,11,06,320,17,15,09,051,16,18,36,140,35*70
$GPGSV,3,2,11,20,57,069,16,21,16,315,15,23,58,058,26,24,32,071,21*70
$GPGSV,3,3,11,27,34,263,23,32,49,223,32,04,45,141,00*42
$GPVTG,187.4,T,178.8,M,000.0,N,0000.0,K*72
