
[ICM General Parameters]
MGI RWA Section Options=2.0.1 %04Y%02m%02d %02H%02M%S%25u*~|.%d*~|.,*~|.%#_13g
Data Stream Name=GPS GGA data
Version=0
Author=Davita
Description=GPS data 
Comments=
Date=3687145200
Time=38552.37814951
Location=
# of Records=2435

[Query Name]
MGI RWA Section Options=2.0.1 %04Y%02m%02d %02H%02M%S%25u*~|.%d*~|.,*~|.%#_13g
name=No Query

[No Query]
MGI RWA Section Options=2.0.1 %04Y%02m%02d %02H%02M%S%25u*~|.%d*~|.,*~|.%#_13g
null=0

[Bus Name]
MGI RWA Section Options=2.0.1 %04Y%02m%02d %02H%02M%S%25u*~|.%d*~|.,*~|.%#_13g
name=Serial

[Serial]
MGI RWA Section Options=2.0.1 %04Y%02m%02d %02H%02M%S%25u*~|.%d*~|.,*~|.%#_13g
Port=4
Baud Rate=115200
Data Bits=8
Parity=None
Stop Bits=10
Flow Control=0
Char/Record=0
Termination String=
ms Wait=995
Time-out (1000ms)=1000
Clear Buffer on Open?=FALSE

[Parser Name]
MGI RWA Section Options=2.0.1 %04Y%02m%02d %02H%02M%S%25u*~|.%d*~|.,*~|.%#_13g
name=Multi Sentence Parser

[Multi Sentence Parser]
MGI RWA Section Options=2.0.1 %04Y%02m%02d %02H%02M%S%25u*~|.%d*~|.,*~|.%#_13g
Sentences=<7>
Sentences 0.Sentence.Sentence ID=$GPRMC
Sentences 0.Sentence.Format String=$GPRMC,%f,%s,%f,%s,%f,%s,%s,%f,%f,%f,%s
Sentences 0.Sentence.Channels=<7>
Sentences 0.Sentence.Channels 0=UTC Time
Sentences 0.Sentence.Channels 1=Latitiude
Sentences 0.Sentence.Channels 2=Longititude
Sentences 0.Sentence.Channels 3=Course Over Ground
Sentences 0.Sentence.Channels 4=UTS Date of Pos
Sentences 0.Sentence.Channels 5=Magnetic Variation
Sentences 0.Sentence.Channels 6=
Sentences 0.Sentence.Enabled=<7>
Sentences 0.Sentence.Enabled 0=TRUE
Sentences 0.Sentence.Enabled 1=TRUE
Sentences 0.Sentence.Enabled 2=TRUE
Sentences 0.Sentence.Enabled 3=TRUE
Sentences 0.Sentence.Enabled 4=TRUE
Sentences 0.Sentence.Enabled 5=TRUE
Sentences 0.Sentence.Enabled 6=FALSE
Sentences 0.Sentence.Ignore Missing Sentences?=TRUE
Sentences 1.Sentence.Sentence ID=$GPGGA
Sentences 1.Sentence.Format String=$GPGGA,%2d%2d%2d,%f,%s,%f,%s,%f,%f,%f,%f,%f,%s,%s,%s
Sentences 1.Sentence.Channels=<10>
Sentences 1.Sentence.Channels 0=Hour
Sentences 1.Sentence.Channels 1=Minute
Sentences 1.Sentence.Channels 2=Second
Sentences 1.Sentence.Channels 3=Lat
Sentences 1.Sentence.Channels 4=Long
Sentences 1.Sentence.Channels 5=Quality
Sentences 1.Sentence.Channels 6=Satellites
Sentences 1.Sentence.Channels 7=Horizontal Dilution
Sentences 1.Sentence.Channels 8=Antenna Height
Sentences 1.Sentence.Channels 9=Geoidal Height
Sentences 1.Sentence.Enabled=<10>
Sentences 1.Sentence.Enabled 0=TRUE
Sentences 1.Sentence.Enabled 1=TRUE
Sentences 1.Sentence.Enabled 2=TRUE
Sentences 1.Sentence.Enabled 3=TRUE
Sentences 1.Sentence.Enabled 4=TRUE
Sentences 1.Sentence.Enabled 5=TRUE
Sentences 1.Sentence.Enabled 6=TRUE
Sentences 1.Sentence.Enabled 7=TRUE
Sentences 1.Sentence.Enabled 8=TRUE
Sentences 1.Sentence.Enabled 9=TRUE
Sentences 1.Sentence.Ignore Missing Sentences?=TRUE
Sentences 2.Sentence.Sentence ID=$GPGSA
Sentences 2.Sentence.Format String=$GPGSA,%s,%f,%f,%f,%f,%f,%f,%f,%f,%f,%f,%f,%f,%f,%f,%f,%s
Sentences 2.Sentence.Channels=<19>
Sentences 2.Sentence.Channels 0=Fix Type
Sentences 2.Sentence.Channels 1=PRN1
Sentences 2.Sentence.Channels 2=PRN2
Sentences 2.Sentence.Channels 3=PRN3
Sentences 2.Sentence.Channels 4=PRN4
Sentences 2.Sentence.Channels 5=PRN5
Sentences 2.Sentence.Channels 6=PRN6
Sentences 2.Sentence.Channels 7=PRN7
Sentences 2.Sentence.Channels 8=PRN8
Sentences 2.Sentence.Channels 9=PRN9
Sentences 2.Sentence.Channels 10=PRN10
Sentences 2.Sentence.Channels 11=PRN11
Sentences 2.Sentence.Channels 12=PRN12
Sentences 2.Sentence.Channels 13=Position Dilution
Sentences 2.Sentence.Channels 14=Horizontal Dilution
Sentences 2.Sentence.Channels 15=Vertical Dilution
Sentences 2.Sentence.Channels 16=
Sentences 2.Sentence.Channels 17=
Sentences 2.Sentence.Channels 18=
Sentences 2.Sentence.Enabled=<19>
Sentences 2.Sentence.Enabled 0=TRUE
Sentences 2.Sentence.Enabled 1=TRUE
Sentences 2.Sentence.Enabled 2=TRUE
Sentences 2.Sentence.Enabled 3=TRUE
Sentences 2.Sentence.Enabled 4=TRUE
Sentences 2.Sentence.Enabled 5=TRUE
Sentences 2.Sentence.Enabled 6=TRUE
Sentences 2.Sentence.Enabled 7=TRUE
Sentences 2.Sentence.Enabled 8=TRUE
Sentences 2.Sentence.Enabled 9=TRUE
Sentences 2.Sentence.Enabled 10=TRUE
Sentences 2.Sentence.Enabled 11=TRUE
Sentences 2.Sentence.Enabled 12=TRUE
Sentences 2.Sentence.Enabled 13=TRUE
Sentences 2.Sentence.Enabled 14=TRUE
Sentences 2.Sentence.Enabled 15=TRUE
Sentences 2.Sentence.Enabled 16=FALSE
Sentences 2.Sentence.Enabled 17=FALSE
Sentences 2.Sentence.Enabled 18=FALSE
Sentences 2.Sentence.Ignore Missing Sentences?=TRUE
Sentences 3.Sentence.Sentence ID=$GPGSV,3,1
Sentences 3.Sentence.Format String=$GPGSV,3,1,%f,%f,%f,%f,%f,%f,%f,%f,%f,%f,%f,%f,%f,%f,%f,%f,%s
Sentences 3.Sentence.Channels=<17>
Sentences 3.Sentence.Channels 0=Satellites in View
Sentences 3.Sentence.Channels 1=PRN 1
Sentences 3.Sentence.Channels 2=Sat Elev 1
Sentences 3.Sentence.Channels 3=Sat Az 1
Sentences 3.Sentence.Channels 4=Signal to Noise 1
Sentences 3.Sentence.Channels 5=PRN 2
Sentences 3.Sentence.Channels 6=Sat Elev 2
Sentences 3.Sentence.Channels 7=Sat Az 2
Sentences 3.Sentence.Channels 8=Signal to Noise 2
Sentences 3.Sentence.Channels 9=PRN 3
Sentences 3.Sentence.Channels 10=Sat Elev 3
Sentences 3.Sentence.Channels 11=Sat Az 3
Sentences 3.Sentence.Channels 12=Signal to Noise 3
Sentences 3.Sentence.Channels 13=PRN 4
Sentences 3.Sentence.Channels 14=Sat Elev 4
Sentences 3.Sentence.Channels 15=Sat Az 4
Sentences 3.Sentence.Channels 16=Signal to Noise 4
Sentences 3.Sentence.Enabled=<17>
Sentences 3.Sentence.Enabled 0=FALSE
Sentences 3.Sentence.Enabled 1=TRUE
Sentences 3.Sentence.Enabled 2=TRUE
Sentences 3.Sentence.Enabled 3=TRUE
Sentences 3.Sentence.Enabled 4=TRUE
Sentences 3.Sentence.Enabled 5=TRUE
Sentences 3.Sentence.Enabled 6=TRUE
Sentences 3.Sentence.Enabled 7=TRUE
Sentences 3.Sentence.Enabled 8=TRUE
Sentences 3.Sentence.Enabled 9=TRUE
Sentences 3.Sentence.Enabled 10=TRUE
Sentences 3.Sentence.Enabled 11=TRUE
Sentences 3.Sentence.Enabled 12=TRUE
Sentences 3.Sentence.Enabled 13=TRUE
Sentences 3.Sentence.Enabled 14=TRUE
Sentences 3.Sentence.Enabled 15=TRUE
Sentences 3.Sentence.Enabled 16=TRUE
Sentences 3.Sentence.Ignore Missing Sentences?=TRUE
Sentences 4.Sentence.Sentence ID=$GPGSV,3,2
Sentences 4.Sentence.Format String=$GPGSV,3,2,%f,%f,%f,%f,%f,%f,%f,%f,%f,%f,%f,%f,%f,%f,%f,%f,%s
Sentences 4.Sentence.Channels=<17>
Sentences 4.Sentence.Channels 0=Satellites in View
Sentences 4.Sentence.Channels 1=PRN 5
Sentences 4.Sentence.Channels 2=Sat Elev 5
Sentences 4.Sentence.Channels 3=Sat Az 5
Sentences 4.Sentence.Channels 4=Signal to Noise 5
Sentences 4.Sentence.Channels 5=PRN 6
Sentences 4.Sentence.Channels 6=Sat Elev 6
Sentences 4.Sentence.Channels 7=Sat Az 6
Sentences 4.Sentence.Channels 8=Signal to Noise 6
Sentences 4.Sentence.Channels 9=PRN 7
Sentences 4.Sentence.Channels 10=Sat Elev 7
Sentences 4.Sentence.Channels 11=Sat Az 7
Sentences 4.Sentence.Channels 12=Signal to Noise 7
Sentences 4.Sentence.Channels 13=PRN 8
Sentences 4.Sentence.Channels 14=Sat Elev 8
Sentences 4.Sentence.Channels 15=Sat Az 8
Sentences 4.Sentence.Channels 16=Signal to Noise 8
Sentences 4.Sentence.Enabled=<17>
Sentences 4.Sentence.Enabled 0=FALSE
Sentences 4.Sentence.Enabled 1=TRUE
Sentences 4.Sentence.Enabled 2=TRUE
Sentences 4.Sentence.Enabled 3=TRUE
Sentences 4.Sentence.Enabled 4=TRUE
Sentences 4.Sentence.Enabled 5=TRUE
Sentences 4.Sentence.Enabled 6=TRUE
Sentences 4.Sentence.Enabled 7=TRUE
Sentences 4.Sentence.Enabled 8=TRUE
Sentences 4.Sentence.Enabled 9=TRUE
Sentences 4.Sentence.Enabled 10=TRUE
Sentences 4.Sentence.Enabled 11=TRUE
Sentences 4.Sentence.Enabled 12=TRUE
Sentences 4.Sentence.Enabled 13=TRUE
Sentences 4.Sentence.Enabled 14=TRUE
Sentences 4.Sentence.Enabled 15=TRUE
Sentences 4.Sentence.Enabled 16=TRUE
Sentences 4.Sentence.Ignore Missing Sentences?=TRUE
Sentences 5.Sentence.Sentence ID=$GPGSV,3,3,
Sentences 5.Sentence.Format String=$GPGSV,3,3,%f,%f,%f,%f,%f,%f,%f,%f,%f,%f,%f,%f,%f,%f,%f,%f,%s
Sentences 5.Sentence.Channels=<17>
Sentences 5.Sentence.Channels 0=Total Number of Satellites
Sentences 5.Sentence.Channels 1=PRN 9
Sentences 5.Sentence.Channels 2=Sat Elev 9
Sentences 5.Sentence.Channels 3=Sat Az 9
Sentences 5.Sentence.Channels 4=Signal to Noise 9
Sentences 5.Sentence.Channels 5=PRN 10
Sentences 5.Sentence.Channels 6=Sat Elev 10
Sentences 5.Sentence.Channels 7=Sat Az 10
Sentences 5.Sentence.Channels 8=Signal to Noise 10
Sentences 5.Sentence.Channels 9=PRN 11
Sentences 5.Sentence.Channels 10=Sat Elev 11
Sentences 5.Sentence.Channels 11=Sat Az 11
Sentences 5.Sentence.Channels 12=Signal to Noise 11
Sentences 5.Sentence.Channels 13=PRN 12
Sentences 5.Sentence.Channels 14=Sat Elev 12
Sentences 5.Sentence.Channels 15=Sat Az 12
Sentences 5.Sentence.Channels 16=Signal to Noise 12
Sentences 5.Sentence.Enabled=<17>
Sentences 5.Sentence.Enabled 0=FALSE
Sentences 5.Sentence.Enabled 1=TRUE
Sentences 5.Sentence.Enabled 2=TRUE
Sentences 5.Sentence.Enabled 3=TRUE
Sentences 5.Sentence.Enabled 4=TRUE
Sentences 5.Sentence.Enabled 5=TRUE
Sentences 5.Sentence.Enabled 6=TRUE
Sentences 5.Sentence.Enabled 7=TRUE
Sentences 5.Sentence.Enabled 8=TRUE
Sentences 5.Sentence.Enabled 9=TRUE
Sentences 5.Sentence.Enabled 10=TRUE
Sentences 5.Sentence.Enabled 11=TRUE
Sentences 5.Sentence.Enabled 12=TRUE
Sentences 5.Sentence.Enabled 13=TRUE
Sentences 5.Sentence.Enabled 14=TRUE
Sentences 5.Sentence.Enabled 15=TRUE
Sentences 5.Sentence.Enabled 16=TRUE
Sentences 5.Sentence.Ignore Missing Sentences?=TRUE
Sentences 6.Sentence.Sentence ID=$GPVTG
Sentences 6.Sentence.Format String=$GPVTG,%d
Sentences 6.Sentence.Channels=<1>
Sentences 6.Sentence.Channels 0=GPVTG present?
Sentences 6.Sentence.Enabled=<1>
Sentences 6.Sentence.Enabled 0=TRUE
Sentences 6.Sentence.Ignore Missing Sentences?=TRUE

[Query]
MGI RWA Section Options=2.0.1 %04Y%02m%02d %02H%02M%S%25u*~|.%d*~|.,*~|.%#_13g
Value=1000

[Polynomial]
MGI RWA Section Options=2.0.1 %04Y%02m%02d %02H%02M%S%25u*~|.%d*~|.,*~|.%#_13g
Polynomials=<1>
Polynomials 0.Cluster.Instance=1/100th
Polynomials 0.Cluster.Polynomial=<2>0,0.01

[Scaling]
MGI RWA Section Options=2.0.1 %04Y%02m%02d %02H%02M%S%25u*~|.%d*~|.,*~|.%#_13g
Value=<3>
Value 0.Scaling.Channel=1
Value 0.Scaling.Scaling=Lookup Table
Value 0.Scaling.Instance=hello
Value 1.Scaling.Channel=Long
Value 1.Scaling.Scaling=Polynomial
Value 1.Scaling.Instance=1/100th
Value 2.Scaling.Channel=Lat
Value 2.Scaling.Scaling=Polynomial
Value 2.Scaling.Instance=1/100th

[Lookup Table]
MGI RWA Section Options=2.0.1 %04Y%02m%02d %02H%02M%S%25u*~|.%d*~|.,*~|.%#_13g
Tables=<2>
Tables 0.Cluster.Instance=table
Tables 0.Cluster.Table=<4>
Tables 0.Cluster.Table 0.Cluster.Raw Value=15
Tables 0.Cluster.Table 0.Cluster.Scaled Value=10
Tables 0.Cluster.Table 1.Cluster.Raw Value=30
Tables 0.Cluster.Table 1.Cluster.Scaled Value=11
Tables 0.Cluster.Table 2.Cluster.Raw Value=40
Tables 0.Cluster.Table 2.Cluster.Scaled Value=20
Tables 0.Cluster.Table 3.Cluster.Raw Value=70
Tables 0.Cluster.Table 3.Cluster.Scaled Value=25
Tables 1.Cluster.Instance=hello
Tables 1.Cluster.Table=<4>
Tables 1.Cluster.Table 0.Cluster.Raw Value=17
Tables 1.Cluster.Table 0.Cluster.Scaled Value=0
Tables 1.Cluster.Table 1.Cluster.Raw Value=2000
Tables 1.Cluster.Table 1.Cluster.Scaled Value=40
Tables 1.Cluster.Table 2.Cluster.Raw Value=5000
Tables 1.Cluster.Table 2.Cluster.Scaled Value=70
Tables 1.Cluster.Table 3.Cluster.Raw Value=300000
Tables 1.Cluster.Table 3.Cluster.Scaled Value=700

[Modbus]
MGI RWA Section Options=2.0.1 %04Y%02m%02d %02H%02M%S%25u*~|.%d*~|.,*~|.%#_13g
Port=0
Modbus Server Name=localhost
Serial/Ethernet=FALSE
Baud Rate=0
Serial Type=RTU
Unit ID=0
Parity=0
Input Channels=<0>
Swap Words?=FALSE

[Initializer Name]
MGI RWA Section Options=2.0.1 %04Y%02m%02d %02H%02M%S%25u*~|.%d*~|.,*~|.%#_13g
name=String Init

[String Init]
MGI RWA Section Options=2.0.1 %04Y%02m%02d %02H%02M%S%25u*~|.%d*~|.,*~|.%#_13g
String=$PGRMO,GPVTG,1*24carriage*~|.returnline*~|.feed

[No Init]
MGI RWA Section Options=2.0.1 %04Y%02m%02d %02H%02M%S%25u*~|.%d*~|.,*~|.%#_13g
null=0

[Output Name]
MGI RWA Section Options=2.0.1 %04Y%02m%02d %02H%02M%S%25u*~|.%d*~|.,*~|.%#_13g
name=No Output

[NI Analog Out]
MGI RWA Section Options=2.0.1 %04Y%02m%02d %02H%02M%S%25u*~|.%d*~|.,*~|.%#_13g
Device=cDAQ1Mod4
SE/Diff=FALSE
Channels=<3>
Channels 0.Channel.Channel=0
Channels 0.Channel.Range=-10.0 to 10.0 V
Channels 1.Channel.Channel=1
Channels 1.Channel.Range=-10.0 to 10.0 V
Channels 2.Channel.Channel=2
Channels 2.Channel.Range=-10.0 to 10.0 V
AD Write Time-out (s)=0
Channel Names=<3>
Channel Names 0=ao1
Channel Names 1=ao2
Channel Names 2=ao3
Enabled=<3>
Enabled 0=TRUE
Enabled 1=TRUE
Enabled 2=TRUE

[No Output]
MGI RWA Section Options=2.0.1 %04Y%02m%02d %02H%02M%S%25u*~|.%d*~|.,*~|.%#_13g
null=0

[NI Analog]
MGI RWA Section Options=2.0.1 %04Y%02m%02d %02H%02M%S%25u*~|.%d*~|.,*~|.%#_13g
Device=
SE/Diff=FALSE
Channels=<0>
AD Read Time-out (s)=0

[Serial Out]
MGI RWA Section Options=2.0.1 %04Y%02m%02d %02H%02M%S%25u*~|.%d*~|.,*~|.%#_13g
String=
Channel Names=<0>
Enabled=<0>

[Multiple Queries]
MGI RWA Section Options=2.0.1 %04Y%02m%02d %02H%02M%S%25u*~|.%d*~|.,*~|.%#_13g
Queries=<0>
Time Between Queries (ms)=0
Response Separator=
   	#######
                 ç?XáÄ     Å$GPRMC,174403,A,4008.1909,N,10506.9195,W,000.0,187.4,190301,008.7,E*65
$GPGGA,174403,4008.1909,N,10506.9195,W,2,08,1.1,1530.6,M,-17.8,M,,*47
$GPGSA,A,3,08,10,18,20,23,24,27,32,,,,,2.4,1.1,2.1*36
$GPGSV,3,1,11,08,23,302,14,10,68,339,33,18,36,139,29,20,58,069,18*75
$GPGSV,3,2,11,23,58,058,27,24,33,072,16,27,34,263,18,32,49,223,31*79
$GPGSV,3,3,11,04,45,141,00,13,35,214,00,15,74,051,00*48
$GPVTG,187.4,T,178.8,M,000.0,N,0000.0,K*72
$PGRMO,GPVTG,1*24
$GPRMC,174404,A,4008.1909,N,10506.9195,W,000.0,187.4,190301,008.7,E*62
$GPGGA,174404,4008.1909,N,10506.9195,W,2,08,1.1,1530.6,M,-17.8,M,,*40
$GPGSA,A,3,08,10,18,20,23,24,27,32,,,,,2.4,1.1,2.1*36
$GPGSV,3,1,11,08,23,302,14,10,68,339,33,18,36,139,29,20,58,069,18*75
$GPGSV,3,2,11,23,58,058,27,24,33,072,16,27,34,263,18,32,49,223,31*79
$GPGSV,3,3,11,04,45,141,00,13,35,214,00,15,74,051,00*48
$GPVTG,187.4,T,178.8,M,000.0,N,0000.0,K*72
  √@ åÄ     ∑$GPRMC,174405,A,4008.1909,N,10506.9195,W,000.0,187.4,190301,008.7,E*63
$GPGGA,174405,4008.1909,N,10506.9195,W,2,08,1.1,1530.6,M,-17.8,M,,*41
$GPGSA,A,3,08,10,18,20,23,24,27,32,,,,,2.4,1.1,2.1*36
$GPGSV,3,1,11,08,23,302,14,10,68,339,33,18,36,139,29,20,58,069,18*75
$GPGSV,3,2,11,23,58,058,27,24,33,072,16,27,34,263,18,32,49,223,31*79
$GPGSV,3,3,11,04,45,141,00,13,35,214,00,15,74,051,00*48
$GPVTG,187.4,T,178.8,M,000.0,N,0000.0,K*72
  √@Ô≠      ∑$GPRMC,174406,A,4008.1909,N,10506.9195,W,000.0,187.4,190301,008.7,E*60
$GPGGA,174406,4008.1909,N,10506.9195,W,2,08,1.1,1530.6,M,-17.8,M,,*42
$GPGSA,A,3,08,10,18,20,23,24,27,32,,,,,2.4,1.1,2.1*36
$GPGSV,3,1,11,08,23,302,14,10,68,339,33,18,36,139,29,20,58,069,18*75
$GPGSV,3,2,11,23,58,058,27,24,33,072,16,27,34,263,18,32,49,223,31*79
$GPGSV,3,3,11,04,45,141,00,13,35,214,00,15,74,051,00*48
$GPVTG,187.4,T,178.8,M,000.0,N,0000.0,K*72
  ≈@¶-Ä     π$GPRMC,174407,A,4008.1909,N,10506.9195,W,000.0,187.4,190301,008.7,E*61
$GPGGA,174407,4008.1909,N,10506.9195,W,2,09,1.0,1530.6,M,-17.8,M,,*43
$GPGSA,A,3,08,10,15,18,20,23,24,27,32,,,,1.8,1.0,1.5*3B
$GPGSV,3,1,11,08,23,302,13,10,68,339,33,15,10,051,17,18,36,139,29*7C
$GPGSV,3,2,11,20,58,069,18,23,58,058,27,24,33,072,16,27,34,263,18*7D
$GPGSV,3,3,11,32,49,223,31,04,45,141,00,13,35,214,00*46
$GPVTG,187.4,T,178.8,M,000.0,N,0000.0,K*72
  √@’q‡     ∑$GPRMC,174408,A,4008.1909,N,10506.9195,W,000.0,187.4,190301,008.7,E*6E
$GPGGA,174408,4008.1909,N,10506.9195,W,2,08,1.2,1530.6,M,-17.8,M,,*4F
$GPGSA,A,3,10,15,18,20,23,24,27,32,,,,,2.0,1.2,1.6*39
$GPGSV,3,1,11,10,68,339,33,15,10,051,17,18,36,139,29,20,58,069,18*7F
$GPGSV,3,2,11,23,58,058,26,24,33,072,16,27,34,263,18,32,49,223,32*7B
$GPGSV,3,3,11,04,45,141,00,13,35,214,00,19,38,265,00*49
$GPVTG,187.4,T,178.8,M,000.0,N,0000.0,K*72
  √@œ      ∑$GPRMC,174409,A,4008.1909,N,10506.9195,W,000.0,187.4,190301,008.7,E*6F
$GPGGA,174409,4008.1909,N,10506.9195,W,2,08,1.2,1530.6,M,-17.8,M,,*4E
$GPGSA,A,3,10,15,18,20,23,24,27,32,,,,,2.0,1.2,1.6*39
$GPGSV,3,1,11,10,68,339,33,15,10,051,17,18,36,139,29,20,58,069,18*7F
$GPGSV,3,2,11,23,58,058,26,24,33,072,16,27,34,263,18,32,49,223,32*7B
$GPGSV,3,3,11,04,45,141,00,13,35,214,00,19,38,265,00*49
$GPVTG,187.4,T,178.8,M,000.0,N,0000.0,K*72
  √@4Ä     ∑$GPRMC,174410,A,4008.1909,N,10506.9195,W,000.0,187.4,190301,008.7,E*67
$GPGGA,174410,4008.1909,N,10506.9195,W,2,08,1.2,1530.6,M,-17.8,M,,*46
$GPGSA,A,3,10,15,18,20,23,24,27,32,,,,,2.0,1.2,1.6*39
$GPGSV,3,1,11,10,68,339,33,15,10,051,17,18,36,139,29,20,58,069,18*7F
$GPGSV,3,2,11,23,58,058,26,24,33,072,16,27,34,263,18,32,49,223,32*7B
$GPGSV,3,3,11,04,45,141,00,13,35,214,00,19,38,265,00*49
$GPVTG,187.4,T,178.8,M,000.0,N,0000.0,K*72
  √@ ≤Â0     ∑$GPRMC,174411,A,4008.1909,N,10506.9194,W,000.0,187.4,190301,008.7,E*67
$GPGGA,174411,4008.1909,N,10506.9194,W,2,08,1.2,1530.6,M,-17.8,M,,*46
$GPGSA,A,3,10,15,18,20,23,24,27,32,,,,,2.0,1.2,1.6*39
$GPGSV,3,1,11,10,69,340,33,15,10,051,17,18,36,139,29,20,58,069,18*70
$GPGSV,3,2,11,23,58,058,25,24,33,072,16,27,34,263,18,32,49,223,32*78
$GPGSV,3,3,11,04,45,141,00,13,35,214,00,19,38,265,00*49
$GPVTG,187.4,T,178.8,M,000.0,N,0000.0,K*72
  √@" ï–     ∑$GPRMC,174412,A,4008.1909,N,10506.9194,W,000.0,187.4,190301,008.7,E*64
$GPGGA,174412,4008.1909,N,10506.9194,W,2,08,1.2,1530.6,M,-17.8,M,,*45
$GPGSA,A,3,10,15,18,20,23,24,27,32,,,,,2.0,1.2,1.6*39
$GPGSV,3,1,11,10,69,340,33,15,10,051,17,18,36,139,30,20,58,069,18*78
$GPGSV,3,2,11,23,58,058,25,24,33,072,16,27,34,263,18,32,49,223,32*78
$GPGSV,3,3,11,04,45,141,00,13,35,214,00,19,38,265,00*49
$GPVTG,187.4,T,178.8,M,000.0,N,0000.0,K*72
  √@$·»      ∑$GPRMC,174413,A,4008.1909,N,10506.9194,W,000.0,187.4,190301,008.7,E*65
$GPGGA,174413,4008.1909,N,10506.9194,W,2,08,1.2,1530.5,M,-17.8,M,,*47
$GPGSA,A,3,10,15,18,20,23,24,27,32,,,,,2.0,1.2,1.6*39
$GPGSV,3,1,11,10,69,340,33,15,10,051,17,18,36,139,30,20,58,069,18*78
$GPGSV,3,2,11,23,58,058,26,24,33,072,16,27,34,263,18,32,49,223,32*7B
$GPGSV,3,3,11,04,45,141,00,13,35,214,00,19,38,265,00*49
$GPVTG,187.4,T,178.8,M,000.0,N,0000.0,K*72
  @&˘˘      	$GPRMC,174414,A,4008.1909,N,10506.9194,W,000.0,187.4,190301,008.7,E*62
$GPGGA,174414,4008.1909,N,10506.9194,W,2,08,1.2,1530.5,M,-17.8,M,,*40
$GPGSA,A,3,10,15,18,20,23,24,27,32,,,,,2.0,1.2,1.6*39
$GPGSV,3,1,11,10,69,340,33,15,10,051,17,18,36,139,30,20,58,069,18*78
$GPGSV,3,2,11,23,58,058,26,24,33,072,16,27,34,263,18,32,49,223,32*7B
$GPGSV,3,3,11,04,45,141,00,13,35,214,00,19,38,265,00*49
$GPVTG,187.4,T,178.8,M,000.0,N,0000.0,K*72
$GPRMC,174415,A,4008.1909,N,10506.9194,W,000.0,187.4,190301,008.7,E*63
$GPGGA,174415,4008.1909,N,10506.9194,W,2,08,1.2,1530.5,M,-17.8,M,,*41
$GPGSA,A,3,10,15,18,20,23,24,27,32,,,,,2.0,1.2,1.6*39
$GPGSV,3,1,11,10,69,340,33,15,10,051,17,18,36,139,30,20,58,069,18*78
$GPGSV,3,2,11,23,58,058,26,24,33,072,15,27,34,263,18,32,49,223,32*78
  (@)]–     $GPGSV,3,3,11,04,45,141,00,13,35,214,00,19,38,263,00*4F
$GPVTG,187.4,T,178.8,M,000.0,N,0000.0,K*72
$GPRMC,174416,A,4008.1909,N,10506.9194,W,000.0,187.4,190301,008.7,E*60
$GPGGA,174416,4008.1909,N,10506.9194,W,2,08,1.2,1530.5,M,-17.8,M,,*42
$GPGSA,A,3,10,15,18,20,23,24,27,32,,,,,2.0,1.2,1.6*39
$GPGSV,3,1,11,10,69,340,33,15,10,051,16,18,36,139,30,20,58,069,17*76
$GPGSV,3,2,11,23,58,058,26,24,33,072,14,27,34,263,18,32,49,223,32*79
$GPGSV,3,3,11,04,45,141,00,13,35,214,00,19,38,263,00*4F
$GPVTG,187.4,T,178.8,M,000.0,N,0000.0,K*72
  √@+(“`     ∑$GPRMC,174417,A,4008.1909,N,10506.9194,W,000.0,187.4,190301,008.7,E*61
$GPGGA,174417,4008.1909,N,10506.9194,W,2,08,1.2,1530.5,M,-17.8,M,,*43
$GPGSA,A,3,10,15,18,20,23,24,27,32,,,,,2.0,1.2,1.6*39
$GPGSV,3,1,11,10,69,340,33,15,10,051,16,18,36,139,30,20,58,069,17*76
$GPGSV,3,2,11,23,58,058,26,24,33,072,14,27,34,263,18,32,49,223,32*79
$GPGSV,3,3,11,04,45,141,00,13,35,214,00,19,38,263,00*4F
$GPVTG,187.4,T,178.8,M,000.0,N,0000.0,K*72
