
[ICM General Parameters]
MGI RWA Section Options=2.0.1 %04Y%02m%02d %02H%02M%S%25u*~|.%d*~|.,*~|.%#_13g
Data Stream Name=GPS GGA data
Version=0
Author=Davita
Description=GPS data 
Comments=
Date=3687145200
Time=36074.51871347
Location=
# of Records=76

[Query Name]
MGI RWA Section Options=2.0.1 %04Y%02m%02d %02H%02M%S%25u*~|.%d*~|.,*~|.%#_13g
name=No Query

[No Query]
MGI RWA Section Options=2.0.1 %04Y%02m%02d %02H%02M%S%25u*~|.%d*~|.,*~|.%#_13g
null=0

[Bus Name]
MGI RWA Section Options=2.0.1 %04Y%02m%02d %02H%02M%S%25u*~|.%d*~|.,*~|.%#_13g
name=Serial

[Serial]
MGI RWA Section Options=2.0.1 %04Y%02m%02d %02H%02M%S%25u*~|.%d*~|.,*~|.%#_13g
Port=4
Baud Rate=115200
Data Bits=8
Parity=None
Stop Bits=10
Flow Control=0
Char/Record=0
Termination String=
ms Wait=1000
Time-out (1000ms)=1000
Clear Buffer on Open?=FALSE

[Parser Name]
MGI RWA Section Options=2.0.1 %04Y%02m%02d %02H%02M%S%25u*~|.%d*~|.,*~|.%#_13g
name=Multi Sentence Parser

[Multi Sentence Parser]
MGI RWA Section Options=2.0.1 %04Y%02m%02d %02H%02M%S%25u*~|.%d*~|.,*~|.%#_13g
Sentences=<7>
Sentences 0.Sentence.Sentence ID=$GPRMC
Sentences 0.Sentence.Format String=$GPRMC,%f,%s,%f,%s,%f,%s,%s,%f,%f,%f,%s
Sentences 0.Sentence.Channels=<7>
Sentences 0.Sentence.Channels 0=UTC Time
Sentences 0.Sentence.Channels 1=Latitiude
Sentences 0.Sentence.Channels 2=Longititude
Sentences 0.Sentence.Channels 3=Course Over Ground
Sentences 0.Sentence.Channels 4=UTS Date of Pos
Sentences 0.Sentence.Channels 5=Magnetic Variation
Sentences 0.Sentence.Channels 6=
Sentences 0.Sentence.Enabled=<7>
Sentences 0.Sentence.Enabled 0=TRUE
Sentences 0.Sentence.Enabled 1=TRUE
Sentences 0.Sentence.Enabled 2=TRUE
Sentences 0.Sentence.Enabled 3=TRUE
Sentences 0.Sentence.Enabled 4=TRUE
Sentences 0.Sentence.Enabled 5=TRUE
Sentences 0.Sentence.Enabled 6=FALSE
Sentences 0.Sentence.Ignore Missing Sentences?=TRUE
Sentences 1.Sentence.Sentence ID=$GPGGA
Sentences 1.Sentence.Format String=$GPGGA,%2d%2d%2d,%f,%s,%f,%s,%f,%f,%f,%f,%f,%s,%s,%s
Sentences 1.Sentence.Channels=<10>
Sentences 1.Sentence.Channels 0=Hour
Sentences 1.Sentence.Channels 1=Minute
Sentences 1.Sentence.Channels 2=Second
Sentences 1.Sentence.Channels 3=Lat
Sentences 1.Sentence.Channels 4=Long
Sentences 1.Sentence.Channels 5=Quality
Sentences 1.Sentence.Channels 6=Satellites
Sentences 1.Sentence.Channels 7=Horizontal Dilution
Sentences 1.Sentence.Channels 8=Antenna Height
Sentences 1.Sentence.Channels 9=Geoidal Height
Sentences 1.Sentence.Enabled=<10>
Sentences 1.Sentence.Enabled 0=TRUE
Sentences 1.Sentence.Enabled 1=TRUE
Sentences 1.Sentence.Enabled 2=TRUE
Sentences 1.Sentence.Enabled 3=TRUE
Sentences 1.Sentence.Enabled 4=TRUE
Sentences 1.Sentence.Enabled 5=TRUE
Sentences 1.Sentence.Enabled 6=TRUE
Sentences 1.Sentence.Enabled 7=TRUE
Sentences 1.Sentence.Enabled 8=TRUE
Sentences 1.Sentence.Enabled 9=TRUE
Sentences 1.Sentence.Ignore Missing Sentences?=TRUE
Sentences 2.Sentence.Sentence ID=$GPGSA
Sentences 2.Sentence.Format String=$GPGSA,%s,%f,%f,%f,%f,%f,%f,%f,%f,%f,%f,%f,%f,%f,%f,%f,%s
Sentences 2.Sentence.Channels=<19>
Sentences 2.Sentence.Channels 0=Fix Type
Sentences 2.Sentence.Channels 1=PRN1
Sentences 2.Sentence.Channels 2=PRN2
Sentences 2.Sentence.Channels 3=PRN3
Sentences 2.Sentence.Channels 4=PRN4
Sentences 2.Sentence.Channels 5=PRN5
Sentences 2.Sentence.Channels 6=PRN6
Sentences 2.Sentence.Channels 7=PRN7
Sentences 2.Sentence.Channels 8=PRN8
Sentences 2.Sentence.Channels 9=PRN9
Sentences 2.Sentence.Channels 10=PRN10
Sentences 2.Sentence.Channels 11=PRN11
Sentences 2.Sentence.Channels 12=PRN12
Sentences 2.Sentence.Channels 13=Position Dilution
Sentences 2.Sentence.Channels 14=Horizontal Dilution
Sentences 2.Sentence.Channels 15=Vertical Dilution
Sentences 2.Sentence.Channels 16=
Sentences 2.Sentence.Channels 17=
Sentences 2.Sentence.Channels 18=
Sentences 2.Sentence.Enabled=<19>
Sentences 2.Sentence.Enabled 0=TRUE
Sentences 2.Sentence.Enabled 1=TRUE
Sentences 2.Sentence.Enabled 2=TRUE
Sentences 2.Sentence.Enabled 3=TRUE
Sentences 2.Sentence.Enabled 4=TRUE
Sentences 2.Sentence.Enabled 5=TRUE
Sentences 2.Sentence.Enabled 6=TRUE
Sentences 2.Sentence.Enabled 7=TRUE
Sentences 2.Sentence.Enabled 8=TRUE
Sentences 2.Sentence.Enabled 9=TRUE
Sentences 2.Sentence.Enabled 10=TRUE
Sentences 2.Sentence.Enabled 11=TRUE
Sentences 2.Sentence.Enabled 12=TRUE
Sentences 2.Sentence.Enabled 13=TRUE
Sentences 2.Sentence.Enabled 14=TRUE
Sentences 2.Sentence.Enabled 15=TRUE
Sentences 2.Sentence.Enabled 16=FALSE
Sentences 2.Sentence.Enabled 17=FALSE
Sentences 2.Sentence.Enabled 18=FALSE
Sentences 2.Sentence.Ignore Missing Sentences?=TRUE
Sentences 3.Sentence.Sentence ID=$GPGSV,3,1
Sentences 3.Sentence.Format String=$GPGSV,3,1,%f,%f,%f,%f,%f,%f,%f,%f,%f,%f,%f,%f,%f,%f,%f,%f,%s
Sentences 3.Sentence.Channels=<17>
Sentences 3.Sentence.Channels 0=Satellites in View
Sentences 3.Sentence.Channels 1=PRN 1
Sentences 3.Sentence.Channels 2=Sat Elev 1
Sentences 3.Sentence.Channels 3=Sat Az 1
Sentences 3.Sentence.Channels 4=Signal to Noise 1
Sentences 3.Sentence.Channels 5=PRN 2
Sentences 3.Sentence.Channels 6=Sat Elev 2
Sentences 3.Sentence.Channels 7=Sat Az 2
Sentences 3.Sentence.Channels 8=Signal to Noise 2
Sentences 3.Sentence.Channels 9=PRN 3
Sentences 3.Sentence.Channels 10=Sat Elev 3
Sentences 3.Sentence.Channels 11=Sat Az 3
Sentences 3.Sentence.Channels 12=Signal to Noise 3
Sentences 3.Sentence.Channels 13=PRN 4
Sentences 3.Sentence.Channels 14=Sat Elev 4
Sentences 3.Sentence.Channels 15=Sat Az 4
Sentences 3.Sentence.Channels 16=Signal to Noise 4
Sentences 3.Sentence.Enabled=<17>
Sentences 3.Sentence.Enabled 0=FALSE
Sentences 3.Sentence.Enabled 1=TRUE
Sentences 3.Sentence.Enabled 2=TRUE
Sentences 3.Sentence.Enabled 3=TRUE
Sentences 3.Sentence.Enabled 4=TRUE
Sentences 3.Sentence.Enabled 5=TRUE
Sentences 3.Sentence.Enabled 6=TRUE
Sentences 3.Sentence.Enabled 7=TRUE
Sentences 3.Sentence.Enabled 8=TRUE
Sentences 3.Sentence.Enabled 9=TRUE
Sentences 3.Sentence.Enabled 10=TRUE
Sentences 3.Sentence.Enabled 11=TRUE
Sentences 3.Sentence.Enabled 12=TRUE
Sentences 3.Sentence.Enabled 13=TRUE
Sentences 3.Sentence.Enabled 14=TRUE
Sentences 3.Sentence.Enabled 15=TRUE
Sentences 3.Sentence.Enabled 16=TRUE
Sentences 3.Sentence.Ignore Missing Sentences?=TRUE
Sentences 4.Sentence.Sentence ID=$GPGSV,3,2
Sentences 4.Sentence.Format String=$GPGSV,3,2,%f,%f,%f,%f,%f,%f,%f,%f,%f,%f,%f,%f,%f,%f,%f,%f,%s
Sentences 4.Sentence.Channels=<17>
Sentences 4.Sentence.Channels 0=Satellites in View
Sentences 4.Sentence.Channels 1=PRN 5
Sentences 4.Sentence.Channels 2=Sat Elev 5
Sentences 4.Sentence.Channels 3=Sat Az 5
Sentences 4.Sentence.Channels 4=Signal to Noise 5
Sentences 4.Sentence.Channels 5=PRN 6
Sentences 4.Sentence.Channels 6=Sat Elev 6
Sentences 4.Sentence.Channels 7=Sat Az 6
Sentences 4.Sentence.Channels 8=Signal to Noise 6
Sentences 4.Sentence.Channels 9=PRN 7
Sentences 4.Sentence.Channels 10=Sat Elev 7
Sentences 4.Sentence.Channels 11=Sat Az 7
Sentences 4.Sentence.Channels 12=Signal to Noise 7
Sentences 4.Sentence.Channels 13=PRN 8
Sentences 4.Sentence.Channels 14=Sat Elev 8
Sentences 4.Sentence.Channels 15=Sat Az 8
Sentences 4.Sentence.Channels 16=Signal to Noise 8
Sentences 4.Sentence.Enabled=<17>
Sentences 4.Sentence.Enabled 0=FALSE
Sentences 4.Sentence.Enabled 1=TRUE
Sentences 4.Sentence.Enabled 2=TRUE
Sentences 4.Sentence.Enabled 3=TRUE
Sentences 4.Sentence.Enabled 4=TRUE
Sentences 4.Sentence.Enabled 5=TRUE
Sentences 4.Sentence.Enabled 6=TRUE
Sentences 4.Sentence.Enabled 7=TRUE
Sentences 4.Sentence.Enabled 8=TRUE
Sentences 4.Sentence.Enabled 9=TRUE
Sentences 4.Sentence.Enabled 10=TRUE
Sentences 4.Sentence.Enabled 11=TRUE
Sentences 4.Sentence.Enabled 12=TRUE
Sentences 4.Sentence.Enabled 13=TRUE
Sentences 4.Sentence.Enabled 14=TRUE
Sentences 4.Sentence.Enabled 15=TRUE
Sentences 4.Sentence.Enabled 16=TRUE
Sentences 4.Sentence.Ignore Missing Sentences?=TRUE
Sentences 5.Sentence.Sentence ID=$GPGSV,3,3,
Sentences 5.Sentence.Format String=$GPGSV,3,3,%f,%f,%f,%f,%f,%f,%f,%f,%f,%f,%f,%f,%f,%f,%f,%f,%s
Sentences 5.Sentence.Channels=<17>
Sentences 5.Sentence.Channels 0=Total Number of Satellites
Sentences 5.Sentence.Channels 1=PRN 9
Sentences 5.Sentence.Channels 2=Sat Elev 9
Sentences 5.Sentence.Channels 3=Sat Az 9
Sentences 5.Sentence.Channels 4=Signal to Noise 9
Sentences 5.Sentence.Channels 5=PRN 10
Sentences 5.Sentence.Channels 6=Sat Elev 10
Sentences 5.Sentence.Channels 7=Sat Az 10
Sentences 5.Sentence.Channels 8=Signal to Noise 10
Sentences 5.Sentence.Channels 9=PRN 11
Sentences 5.Sentence.Channels 10=Sat Elev 11
Sentences 5.Sentence.Channels 11=Sat Az 11
Sentences 5.Sentence.Channels 12=Signal to Noise 11
Sentences 5.Sentence.Channels 13=PRN 12
Sentences 5.Sentence.Channels 14=Sat Elev 12
Sentences 5.Sentence.Channels 15=Sat Az 12
Sentences 5.Sentence.Channels 16=Signal to Noise 12
Sentences 5.Sentence.Enabled=<17>
Sentences 5.Sentence.Enabled 0=FALSE
Sentences 5.Sentence.Enabled 1=TRUE
Sentences 5.Sentence.Enabled 2=TRUE
Sentences 5.Sentence.Enabled 3=TRUE
Sentences 5.Sentence.Enabled 4=TRUE
Sentences 5.Sentence.Enabled 5=TRUE
Sentences 5.Sentence.Enabled 6=TRUE
Sentences 5.Sentence.Enabled 7=TRUE
Sentences 5.Sentence.Enabled 8=TRUE
Sentences 5.Sentence.Enabled 9=TRUE
Sentences 5.Sentence.Enabled 10=TRUE
Sentences 5.Sentence.Enabled 11=TRUE
Sentences 5.Sentence.Enabled 12=TRUE
Sentences 5.Sentence.Enabled 13=TRUE
Sentences 5.Sentence.Enabled 14=TRUE
Sentences 5.Sentence.Enabled 15=TRUE
Sentences 5.Sentence.Enabled 16=TRUE
Sentences 5.Sentence.Ignore Missing Sentences?=TRUE
Sentences 6.Sentence.Sentence ID=$GPVTG
Sentences 6.Sentence.Format String=$GPVTG,%d
Sentences 6.Sentence.Channels=<1>
Sentences 6.Sentence.Channels 0=GPVTG present?
Sentences 6.Sentence.Enabled=<1>
Sentences 6.Sentence.Enabled 0=TRUE
Sentences 6.Sentence.Ignore Missing Sentences?=TRUE

[Query]
MGI RWA Section Options=2.0.1 %04Y%02m%02d %02H%02M%S%25u*~|.%d*~|.,*~|.%#_13g
Value=1000

[Polynomial]
MGI RWA Section Options=2.0.1 %04Y%02m%02d %02H%02M%S%25u*~|.%d*~|.,*~|.%#_13g
Polynomials=<1>
Polynomials 0.Cluster.Instance=1/100th
Polynomials 0.Cluster.Polynomial=<2>0,0.01

[Scaling]
MGI RWA Section Options=2.0.1 %04Y%02m%02d %02H%02M%S%25u*~|.%d*~|.,*~|.%#_13g
Value=<3>
Value 0.Scaling.Channel=1
Value 0.Scaling.Scaling=Lookup Table
Value 0.Scaling.Instance=hello
Value 1.Scaling.Channel=Long
Value 1.Scaling.Scaling=Polynomial
Value 1.Scaling.Instance=1/100th
Value 2.Scaling.Channel=Lat
Value 2.Scaling.Scaling=Polynomial
Value 2.Scaling.Instance=1/100th

[Lookup Table]
MGI RWA Section Options=2.0.1 %04Y%02m%02d %02H%02M%S%25u*~|.%d*~|.,*~|.%#_13g
Tables=<2>
Tables 0.Cluster.Instance=table
Tables 0.Cluster.Table=<4>
Tables 0.Cluster.Table 0.Cluster.Raw Value=15
Tables 0.Cluster.Table 0.Cluster.Scaled Value=10
Tables 0.Cluster.Table 1.Cluster.Raw Value=30
Tables 0.Cluster.Table 1.Cluster.Scaled Value=11
Tables 0.Cluster.Table 2.Cluster.Raw Value=40
Tables 0.Cluster.Table 2.Cluster.Scaled Value=20
Tables 0.Cluster.Table 3.Cluster.Raw Value=70
Tables 0.Cluster.Table 3.Cluster.Scaled Value=25
Tables 1.Cluster.Instance=hello
Tables 1.Cluster.Table=<4>
Tables 1.Cluster.Table 0.Cluster.Raw Value=17
Tables 1.Cluster.Table 0.Cluster.Scaled Value=0
Tables 1.Cluster.Table 1.Cluster.Raw Value=2000
Tables 1.Cluster.Table 1.Cluster.Scaled Value=40
Tables 1.Cluster.Table 2.Cluster.Raw Value=5000
Tables 1.Cluster.Table 2.Cluster.Scaled Value=70
Tables 1.Cluster.Table 3.Cluster.Raw Value=300000
Tables 1.Cluster.Table 3.Cluster.Scaled Value=700

[Modbus]
MGI RWA Section Options=2.0.1 %04Y%02m%02d %02H%02M%S%25u*~|.%d*~|.,*~|.%#_13g
Port=0
Modbus Server Name=localhost
Serial/Ethernet=FALSE
Baud Rate=0
Serial Type=RTU
Unit ID=0
Parity=0
Input Channels=<0>
Swap Words?=FALSE

[Initializer Name]
MGI RWA Section Options=2.0.1 %04Y%02m%02d %02H%02M%S%25u*~|.%d*~|.,*~|.%#_13g
name=String Init

[String Init]
MGI RWA Section Options=2.0.1 %04Y%02m%02d %02H%02M%S%25u*~|.%d*~|.,*~|.%#_13g
String=$PGRMO,GPVTG,1*24carriage*~|.returnline*~|.feed

[No Init]
MGI RWA Section Options=2.0.1 %04Y%02m%02d %02H%02M%S%25u*~|.%d*~|.,*~|.%#_13g
null=0

[Output Name]
MGI RWA Section Options=2.0.1 %04Y%02m%02d %02H%02M%S%25u*~|.%d*~|.,*~|.%#_13g
name=No Output

[NI Analog Out]
MGI RWA Section Options=2.0.1 %04Y%02m%02d %02H%02M%S%25u*~|.%d*~|.,*~|.%#_13g
Device=cDAQ1Mod4
SE/Diff=FALSE
Channels=<3>
Channels 0.Channel.Channel=0
Channels 0.Channel.Range=-10.0 to 10.0 V
Channels 1.Channel.Channel=1
Channels 1.Channel.Range=-10.0 to 10.0 V
Channels 2.Channel.Channel=2
Channels 2.Channel.Range=-10.0 to 10.0 V
AD Write Time-out (s)=0
Channel Names=<3>
Channel Names 0=ao1
Channel Names 1=ao2
Channel Names 2=ao3
Enabled=<3>
Enabled 0=TRUE
Enabled 1=TRUE
Enabled 2=TRUE

[No Output]
MGI RWA Section Options=2.0.1 %04Y%02m%02d %02H%02M%S%25u*~|.%d*~|.,*~|.%#_13g
null=0

[NI Analog]
MGI RWA Section Options=2.0.1 %04Y%02m%02d %02H%02M%S%25u*~|.%d*~|.,*~|.%#_13g
Device=
SE/Diff=FALSE
Channels=<0>
AD Read Time-out (s)=0

[Serial Out]
MGI RWA Section Options=2.0.1 %04Y%02m%02d %02H%02M%S%25u*~|.%d*~|.,*~|.%#_13g
String=
Channel Names=<0>
Enabled=<0>

[Multiple Queries]
MGI RWA Section Options=2.0.1 %04Y%02m%02d %02H%02M%S%25u*~|.%d*~|.,*~|.%#_13g
Queries=<0>
Time Between Queries (ms)=0
Response Separator=
   	#######
                 ì?Rè      á$GPRMC,172953,A,4008.1909,N,10506.9200,W,000.0,187.4,190301,008.7,E*64
$GPGGA,172953,4008.1909,N,10506.9200,W,2,10,1.0,1532.5,M,-17.8,M,,*4F
$GPGSA,A,3,08,10,15,18,20,21,23,24,27,32,,,1.8,1.0,1.4*39
$GPGSV,3,1,11,08,21,308,25,10,66,324,35,15,15,050,18,18,43,135,35*7D
$GPGSV,3,2,11,20,62,058,20,21,10,314,19,23,62,047,30,24,33,079,28*7A
$GPGSV,3,3,11,27,37,271,31,32,42,219,27,04,51,137,00*43
$GPVTG,187.4,T,178.8,M,000.0,N,0000.0,K*72
$PGRMO,GPVTG,1*24
$GPRMC,172954,A,4008.1909,N,10506.9200,W,000.0,187.4,190301,008.7,E*63
$GPGGA,172954,4008.1909,N,10506.9200,W,2,09,1.0,1532.5,M,-17.8,M,,*40
$GPGSA,A,3,08,10,15,18,,21,23,24,27,32,,,1.9,1.0,1.6*38
$GPGSV,3,1,11,08,21,308,25,10,66,324,35,15,15,050,18,18,43,136,35*7E
$GPGSV,3,2,11,20,62,058,20,21,10,314,19,23,62,047,30,24,33,079,28*7A
$GPGSV,3,3,11,27,37,271,31,32,42,219,26,04,51,137,00*42
$GPVTG,187.4,T,178.8,M,000.0,N,0000.0,K*72
  «@ îÄ     ª$GPRMC,172955,A,4008.1909,N,10506.9200,W,000.0,187.4,190301,008.7,E*62
$GPGGA,172955,4008.1909,N,10506.9200,W,2,10,1.0,1532.5,M,-17.8,M,,*49
$GPGSA,A,3,08,10,15,18,20,21,23,24,27,32,,,1.8,1.0,1.4*39
$GPGSV,3,1,11,08,21,308,25,10,66,324,35,15,15,050,18,18,43,136,35*7E
$GPGSV,3,2,11,20,62,058,20,21,10,314,19,23,62,047,30,24,33,079,28*7A
$GPGSV,3,3,11,27,37,271,31,32,42,219,26,04,51,137,00*42
$GPVTG,187.4,T,178.8,M,000.0,N,0000.0,K*72
  «@˝¿     ª$GPRMC,172956,A,4008.1909,N,10506.9200,W,000.0,187.4,190301,008.7,E*61
$GPGGA,172956,4008.1909,N,10506.9200,W,2,10,1.0,1532.5,M,-17.8,M,,*4A
$GPGSA,A,3,08,10,15,18,20,21,23,24,27,32,,,1.8,1.0,1.4*39
$GPGSV,3,1,11,08,21,308,25,10,66,324,35,15,15,050,18,18,43,136,35*7E
$GPGSV,3,2,11,20,62,059,20,21,10,314,20,23,62,047,30,24,33,079,28*71
$GPGSV,3,3,11,27,37,271,31,32,42,219,26,04,51,137,00*42
$GPVTG,187.4,T,178.8,M,000.0,N,0000.0,K*72
  «@≥ª‡     ª$GPRMC,172957,A,4008.1909,N,10506.9200,W,000.0,187.4,190301,008.7,E*60
$GPGGA,172957,4008.1909,N,10506.9200,W,2,10,1.0,1532.4,M,-17.8,M,,*4A
$GPGSA,A,3,08,10,15,18,20,21,23,24,27,32,,,1.8,1.0,1.4*39
$GPGSV,3,1,11,08,21,308,26,10,66,324,35,15,15,050,18,18,43,136,35*7D
$GPGSV,3,2,11,20,62,059,20,21,10,315,20,23,62,047,30,24,33,079,28*70
$GPGSV,3,3,11,27,37,271,32,32,42,219,25,04,51,137,00*42
$GPVTG,187.4,T,178.8,M,000.0,N,0000.0,K*72
  «@Ë8`     ª$GPRMC,172958,A,4008.1909,N,10506.9200,W,000.0,187.4,190301,008.7,E*6F
$GPGGA,172958,4008.1909,N,10506.9200,W,2,10,1.0,1532.4,M,-17.8,M,,*45
$GPGSA,A,3,08,10,15,18,20,21,23,24,27,32,,,1.8,1.0,1.4*39
$GPGSV,3,1,11,08,21,308,26,10,66,324,35,15,15,050,19,18,43,136,36*7F
$GPGSV,3,2,11,20,62,059,20,21,10,315,20,23,62,047,30,24,33,079,28*70
$GPGSV,3,3,11,27,37,271,33,32,42,219,25,04,51,137,00*43
$GPVTG,187.4,T,178.8,M,000.0,N,0000.0,K*72
  «@|@     ª$GPRMC,172959,A,4008.1909,N,10506.9200,W,000.0,187.4,190301,008.7,E*6E
$GPGGA,172959,4008.1909,N,10506.9200,W,2,10,1.0,1532.4,M,-17.8,M,,*44
$GPGSA,A,3,08,10,15,18,20,21,23,24,27,32,,,1.8,1.0,1.4*39
$GPGSV,3,1,11,08,21,308,26,10,66,324,35,15,15,050,20,18,43,136,36*75
$GPGSV,3,2,11,20,62,059,20,21,10,315,20,23,62,048,30,24,33,079,28*7F
$GPGSV,3,3,11,27,37,271,33,32,42,219,23,04,51,137,00*45
$GPVTG,187.4,T,178.8,M,000.0,N,0000.0,K*72
  ˘@P√Ä     Ì$GPRMC,173000,A,4008.1909,N,10506.9200,W,000.0,187.4,190301,008.7,E*6A
$GPGGA,173000,4008.1909,N,10506.9200,W,2,10,1.0,1532.4,M,-17.8,M,,*40
$GPGSA,A,3,08,10,15,18,20,21,23,24,27,32,,,1.8,1.0,1.4*39
$GPGSV,3,1,11,08,21,308,26,10,66,324,35,15,15,050,20,18,43,136,36*75
$GPGSV,3,2,11,20,62,059,21,21,10,315,20,23,62,048,29,24,33,079,28*76
$GPGSV,3,3,11,27,37,271,33,32,42,219,22,04,51,137,00*44
$GPVTG,187.4,T,178.8,M,000.0,N,0000.0,K*72
$PGRMT,GPS 18x-LVC software ver. 3.90,,,,,,,,*65
  «@ ¡˙P     ª$GPRMC,173001,A,4008.1909,N,10506.9200,W,000.0,187.4,190301,008.7,E*6B
$GPGGA,173001,4008.1909,N,10506.9200,W,2,10,1.0,1532.4,M,-17.8,M,,*41
$GPGSA,A,3,08,10,15,18,20,21,23,24,27,32,,,1.8,1.0,1.4*39
$GPGSV,3,1,11,08,21,308,26,10,66,324,35,15,15,050,20,18,43,136,36*75
$GPGSV,3,2,11,20,62,059,21,21,10,315,21,23,62,048,30,24,33,079,28*7F
$GPGSV,3,3,11,27,37,271,33,32,42,219,21,04,51,137,00*47
$GPVTG,187.4,T,178.8,M,000.0,N,0000.0,K*72
  «@"‹ô‡     ª$GPRMC,173002,A,4008.1909,N,10506.9200,W,000.0,187.4,190301,008.7,E*68
$GPGGA,173002,4008.1909,N,10506.9200,W,2,10,1.0,1532.4,M,-17.8,M,,*42
$GPGSA,A,3,08,10,15,18,20,21,23,24,27,32,,,1.8,1.0,1.4*39
$GPGSV,3,1,11,08,21,308,27,10,66,324,35,15,15,050,21,18,43,136,37*74
$GPGSV,3,2,11,20,62,059,22,21,10,315,21,23,62,048,30,24,33,079,28*7C
$GPGSV,3,3,11,27,37,271,33,32,42,219,20,04,51,137,00*46
$GPVTG,187.4,T,178.8,M,000.0,N,0000.0,K*72
  ë@$ˆ∑ê     Ö$GPRMC,173003,A,4008.1909,N,10506.9200,W,000.0,187.4,190301,008.7,E*69
$GPGGA,173003,4008.1909,N,10506.9200,W,2,10,1.0,1532.4,M,-17.8,M,,*43
$GPGSA,A,3,08,10,15,18,20,21,23,24,27,32,,,1.8,1.0,1.4*39
$GPGSV,3,1,11,08,21,308,27,10,66,324,35,15,15,050,22,18,43,136,37*77
$GPGSV,3,2,11,20,62,059,22,21,10,315,21,23,62,048,30,24,33,079,28*7C
$GPGSV,3,3,11,27,36,271,33,32,42,219,19,04,51,137,00*4D
$GPVTG,187.4,T,178.8,M,000.0,N,0000.0,K*72
$GPRMC,173004,A,4008.1909,N,10506.9200,W,000.0,187.4,190301,008.7,E*6E
$GPGGA,173004,4008.1909,N,10506.9200,W,2,10,1.0,1532.4,M,-17.8,M,,*44
$GPGSA,A,3,08,10,15,18,20,21,23,24,27,32,,,1.8,1.0,1.4*39
  ∏@'g@     ¨$GPGSV,3,1,11,08,21,308,27,10,66,324,34,15,15,050,22,18,43,136,37*76
$GPGSV,3,2,11,20,62,059,22,21,10,315,22,23,62,048,30,24,33,079,28*7F
$GPGSV,3,3,11,27,36,271,33,32,42,219,18,04,51,137,00*4C
$GPVTG,187.4,T,178.8,M,000.0,N,0000.0,K*72
$GPRMC,173005,A,4008.1909,N,10506.9201,W,000.0,187.4,190301,008.7,E*6E
$GPGGA,173005,4008.1909,N,10506.9201,W,2,10,1.0,1532.5,M,-17.8,M,,*45
$GPGSA,A,3,08,10,15,18,20,21,23,24,27,32,,,1.8,1.0,1.4*39
$GPGSV,3,1,11,08,21,308,27,10,66,324,34,15,15,050,22,18,43,136,37*76
$GPGSV,3,2,11,20,62,059,22,21,10,315,22,23,62,048,30,24,33,079,28*7F
$GPGSV,3,3,11,27,36,271,33,32,42,219,18,04,51,137,00*4C
$GPVTG,187.4,T,178.8,M,000.0,N,0000.0,K*72
  «@),à     ª$GPRMC,173006,A,4008.1909,N,10506.9201,W,000.0,187.4,190301,008.7,E*6D
$GPGGA,173006,4008.1909,N,10506.9201,W,2,10,1.0,1532.5,M,-17.8,M,,*46
$GPGSA,A,3,08,10,15,18,20,21,23,24,27,32,,,1.8,1.0,1.4*39
$GPGSV,3,1,11,08,21,308,27,10,66,324,34,15,15,050,22,18,43,136,37*76
$GPGSV,3,2,11,20,62,059,23,21,10,315,22,23,62,048,30,24,33,079,28*7E
$GPGSV,3,3,11,27,36,271,33,32,42,219,18,04,51,137,00*4C
$GPVTG,187.4,T,178.8,M,000.0,N,0000.0,K*72
  ≈@+F¨     π$GPRMC,173007,A,4008.1909,N,10506.9201,W,000.0,187.4,190301,008.7,E*6C
$GPGGA,173007,4008.1909,N,10506.9201,W,2,09,1.2,1532.5,M,-17.8,M,,*4D
$GPGSA,A,3,08,10,15,18,20,21,23,24,27,,,,1.9,1.2,1.5*3A
$GPGSV,3,1,11,08,21,308,27,10,66,324,34,15,15,050,22,18,43,136,37*76
$GPGSV,3,2,11,20,62,059,23,21,10,315,22,23,62,048,30,24,33,079,28*7E
$GPGSV,3,3,11,27,36,271,33,32,42,219,17,04,51,137,00*43
$GPVTG,187.4,T,178.8,M,000.0,N,0000.0,K*72
  ≈@-`»@     π$GPRMC,173008,A,4008.1909,N,10506.9201,W,000.0,187.4,190301,008.7,E*63
$GPGGA,173008,4008.1909,N,10506.9201,W,2,09,1.2,1532.5,M,-17.8,M,,*42
$GPGSA,A,3,08,10,15,18,20,21,23,24,27,,,,1.9,1.2,1.5*3A
$GPGSV,3,1,11,08,21,308,27,10,66,324,34,15,15,050,21,18,43,136,37*75
$GPGSV,3,2,11,20,62,059,23,21,10,315,22,23,62,048,30,24,33,079,28*7E
$GPGSV,3,3,11,27,36,271,33,32,43,219,16,04,51,137,00*43
$GPVTG,187.4,T,178.8,M,000.0,N,0000.0,K*72
  ≈@/y˝      π$GPRMC,173009,A,4008.1909,N,10506.9201,W,000.0,187.4,190301,008.7,E*62
$GPGGA,173009,4008.1909,N,10506.9201,W,2,09,1.2,1532.5,M,-17.8,M,,*43
$GPGSA,A,3,08,10,15,18,20,21,23,24,27,,,,1.9,1.2,1.5*3A
$GPGSV,3,1,11,08,21,308,27,10,66,324,34,15,15,050,22,18,43,136,37*76
$GPGSV,3,2,11,20,62,059,23,21,10,315,22,23,62,048,30,24,33,079,28*7E
$GPGSV,3,3,11,27,36,271,33,32,43,219,15,04,51,137,00*40
$GPVTG,187.4,T,178.8,M,000.0,N,0000.0,K*72
  ≈@0 M»     π$GPRMC,173010,A,4008.1909,N,10506.9201,W,000.0,187.4,190301,008.7,E*6A
$GPGGA,173010,4008.1909,N,10506.9201,W,2,09,1.2,1532.5,M,-17.8,M,,*4B
$GPGSA,A,3,08,10,15,18,20,21,23,24,27,,,,1.9,1.2,1.5*3A
$GPGSV,3,1,11,08,21,308,27,10,66,324,34,15,15,050,22,18,43,136,37*76
$GPGSV,3,2,11,20,62,059,23,21,10,315,21,23,62,048,30,24,33,079,27*72
$GPGSV,3,3,11,27,36,271,33,32,43,219,15,04,51,137,00*40
$GPVTG,187.4,T,178.8,M,000.0,N,0000.0,K*72
  ≈@1◊bx     π$GPRMC,173011,A,4008.1909,N,10506.9201,W,000.0,187.4,190301,008.7,E*6B
$GPGGA,173011,4008.1909,N,10506.9201,W,2,09,1.2,1532.5,M,-17.8,M,,*4A
$GPGSA,A,3,08,10,15,18,20,21,23,24,27,,,,1.9,1.2,1.5*3A
$GPGSV,3,1,11,08,21,308,27,10,66,324,34,15,15,050,22,18,43,136,37*76
$GPGSV,3,2,11,20,62,059,23,21,10,315,22,23,62,048,30,24,33,079,27*71
$GPGSV,3,3,11,27,36,271,33,32,43,219,15,04,51,137,00*40
$GPVTG,187.4,T,178.8,M,000.0,N,0000.0,K*72
  «@2‰≥ò     ª$GPRMC,173012,A,4008.1909,N,10506.9201,W,000.0,187.4,190301,008.7,E*68
$GPGGA,173012,4008.1909,N,10506.9201,W,2,10,1.0,1532.5,M,-17.8,M,,*43
$GPGSA,A,3,08,10,15,18,20,21,23,24,27,32,,,1.8,1.0,1.4*39
$GPGSV,3,1,11,08,21,308,27,10,66,324,34,15,15,050,22,18,43,136,37*76
$GPGSV,3,2,11,20,62,059,23,21,10,315,22,23,62,048,30,24,33,079,27*71
$GPGSV,3,3,11,27,36,271,33,32,43,219,16,04,51,137,00*43
$GPVTG,187.4,T,178.8,M,000.0,N,0000.0,K*72
  «@3ÚCà     ª$GPRMC,173013,A,4008.1909,N,10506.9201,W,000.0,187.4,190301,008.7,E*69
$GPGGA,173013,4008.1909,N,10506.9201,W,2,10,1.0,1532.5,M,-17.8,M,,*42
$GPGSA,A,3,08,10,15,18,20,21,23,24,27,32,,,1.8,1.0,1.4*39
$GPGSV,3,1,11,08,21,308,27,10,66,324,34,15,15,050,22,18,43,136,37*76
$GPGSV,3,2,11,20,62,059,23,21,10,315,22,23,62,048,30,24,33,079,27*71
$GPGSV,3,3,11,27,36,271,33,32,43,219,16,04,51,137,00*43
$GPVTG,187.4,T,178.8,M,000.0,N,0000.0,K*72
  «@4ˇ◊P     ª$GPRMC,173014,A,4008.1909,N,10506.9201,W,000.0,187.4,190301,008.7,E*6E
$GPGGA,173014,4008.1909,N,10506.9201,W,2,10,1.0,1532.5,M,-17.8,M,,*45
$GPGSA,A,3,08,10,15,18,20,21,23,24,27,32,,,1.8,1.0,1.4*39
$GPGSV,3,1,11,08,21,308,27,10,66,324,34,15,15,050,22,18,43,136,37*76
$GPGSV,3,2,11,20,62,059,23,21,10,315,22,23,62,048,30,24,33,079,27*71
$GPGSV,3,3,11,27,36,271,33,32,43,219,16,04,51,137,00*43
$GPVTG,187.4,T,178.8,M,000.0,N,0000.0,K*72
  «@6ÌÄ     ª$GPRMC,173015,A,4008.1909,N,10506.9201,W,000.0,187.4,190301,008.7,E*6F
$GPGGA,173015,4008.1909,N,10506.9201,W,2,10,1.0,1532.5,M,-17.8,M,,*44
$GPGSA,A,3,08,10,15,18,20,21,23,24,27,32,,,1.8,1.0,1.4*39
$GPGSV,3,1,11,08,21,308,27,10,66,324,34,15,15,050,22,18,43,136,37*76
$GPGSV,3,2,11,20,62,059,23,21,10,315,22,23,62,048,30,24,33,079,27*71
$GPGSV,3,3,11,27,36,271,33,32,43,219,17,04,51,137,00*42
$GPVTG,187.4,T,178.8,M,000.0,N,0000.0,K*72
  «@7¸à     ª$GPRMC,173016,A,4008.1909,N,10506.9201,W,000.0,187.4,190301,008.7,E*6C
$GPGGA,173016,4008.1909,N,10506.9201,W,2,10,1.0,1532.5,M,-17.8,M,,*47
$GPGSA,A,3,08,10,15,18,20,21,23,24,27,32,,,1.8,1.0,1.4*39
$GPGSV,3,1,11,08,21,308,27,10,66,324,34,15,15,050,22,18,43,136,37*76
$GPGSV,3,2,11,20,62,059,23,21,10,315,22,23,62,048,30,24,33,079,27*71
$GPGSV,3,3,11,27,36,271,33,32,43,219,18,04,51,137,00*4D
$GPVTG,187.4,T,178.8,M,000.0,N,0000.0,K*72
  ≈@8&À     π$GPRMC,173017,A,4008.1909,N,10506.9201,W,000.0,187.4,190301,008.7,E*6D
$GPGGA,173017,4008.1909,N,10506.9201,W,2,09,1.0,1532.5,M,-17.8,M,,*4E
$GPGSA,A,3,08,10,15,18,,21,23,24,27,32,,,1.9,1.0,1.6*38
$GPGSV,3,1,11,08,21,308,27,10,66,324,34,15,15,050,22,18,43,136,37*76
$GPGSV,3,2,11,20,62,059,22,21,10,315,22,23,62,048,30,24,33,079,27*70
$GPGSV,3,3,11,27,36,271,33,32,43,219,19,04,51,137,00*4C
$GPVTG,187.4,T,178.8,M,000.0,N,0000.0,K*72
  «@93‡»     ª$GPRMC,173018,A,4008.1909,N,10506.9201,W,000.0,187.4,190301,008.7,E*62
$GPGGA,173018,4008.1909,N,10506.9201,W,2,10,1.0,1532.5,M,-17.8,M,,*49
$GPGSA,A,3,08,10,15,18,20,21,23,24,27,32,,,1.8,1.0,1.4*39
$GPGSV,3,1,11,08,21,308,27,10,66,324,34,15,15,050,22,18,43,136,37*76
$GPGSV,3,2,11,20,62,059,22,21,10,315,22,23,62,048,30,24,33,079,27*70
$GPGSV,3,3,11,27,36,271,33,32,43,219,20,04,51,137,00*46
$GPVTG,187.4,T,178.8,M,000.0,N,0000.0,K*72
  ≈@:@Òh     π$GPRMC,173019,A,4008.1909,N,10506.9201,W,000.0,187.4,190301,008.7,E*63
$GPGGA,173019,4008.1909,N,10506.9201,W,2,09,1.0,1532.5,M,-17.8,M,,*40
$GPGSA,A,3,08,10,15,18,,21,23,24,27,32,,,1.9,1.0,1.6*38
$GPGSV,3,1,11,08,21,308,27,10,66,324,34,15,15,050,22,18,43,136,37*76
$GPGSV,3,2,11,20,62,059,21,21,10,315,22,23,62,048,30,24,33,079,27*73
$GPGSV,3,3,11,27,36,271,33,32,43,219,21,04,51,137,00*47
$GPVTG,187.4,T,178.8,M,000.0,N,0000.0,K*72
  ≈@;Mæ®     π$GPRMC,173020,A,4008.1909,N,10506.9201,W,000.0,187.4,190301,008.7,E*69
$GPGGA,173020,4008.1909,N,10506.9201,W,2,09,1.0,1532.5,M,-17.8,M,,*4A
$GPGSA,A,3,08,10,15,18,,21,23,24,27,32,,,1.9,1.0,1.6*38
$GPGSV,3,1,11,08,21,308,27,10,66,324,34,15,15,050,22,18,43,136,37*76
$GPGSV,3,2,11,20,62,059,21,21,10,315,22,23,62,048,30,24,33,079,27*73
$GPGSV,3,3,11,27,36,271,33,32,43,219,22,04,51,137,00*44
$GPVTG,187.4,T,178.8,M,000.0,N,0000.0,K*72
  ≈@<[MP     π$GPRMC,173021,A,4008.1909,N,10506.9201,W,000.0,187.4,190301,008.7,E*68
$GPGGA,173021,4008.1909,N,10506.9201,W,2,09,1.0,1532.5,M,-17.8,M,,*4B
$GPGSA,A,3,08,10,15,18,,21,23,24,27,32,,,1.9,1.0,1.6*38
$GPGSV,3,1,11,08,21,308,27,10,66,324,34,15,15,050,22,18,43,136,37*76
$GPGSV,3,2,11,20,62,059,21,21,10,315,22,23,62,048,30,24,33,079,27*73
$GPGSV,3,3,11,27,36,271,33,32,43,219,23,04,51,137,00*45
$GPVTG,187.4,T,178.8,M,000.0,N,0000.0,K*72
  «@=h∞     ª$GPRMC,173022,A,4008.1909,N,10506.9201,W,000.0,187.4,190301,008.7,E*6B
$GPGGA,173022,4008.1909,N,10506.9201,W,2,10,1.0,1532.5,M,-17.8,M,,*40
$GPGSA,A,3,08,10,15,18,20,21,23,24,27,32,,,1.8,1.0,1.4*39
$GPGSV,3,1,11,08,21,308,28,10,66,324,34,15,15,050,22,18,43,136,37*79
$GPGSV,3,2,11,20,62,059,21,21,10,315,22,23,62,048,30,24,33,079,26*72
$GPGSV,3,3,11,27,36,271,33,32,43,219,24,04,51,137,00*42
$GPVTG,187.4,T,178.8,M,000.0,N,0000.0,K*72
  V@>u+H     J$GPRMC,173023,A,4008.1909,N,10506.9201,W,000.0,187.4,190301,008.7,E*6A
$GPGGA,173023,4008.1909,N,10506.9201,W,2,10,1.0,1532.5,M,-17.8,M,,*41
$GPGSA,A,3,08,10,15,18,20,21,23,24,27,32,,,1.8,1.0,1.4*39
$GPGSV,3,1,11,08,21,308,28,10,66,324,34,15,15,050,22,18,43,136,37*79
$GPGSV,3,2,11,20,62,059,21,21,10,315,22,23,62,048,30,24,33,079,26*72
$GPGSV,3,3,11,27,36,271,33,32,43,219,25,04,51,137,00*43
$GPVTG,187.4,T,178.8,M,000.0,N,0000.0,K*72
$GPRMC,173024,A,4008.1909,N,10506.9201,W,000.0,187.4,190301,008.7,E*6D
$GPGGA,173024,4008.1909,N,10506.9201,W,2,10,1.0,1532.5,M,-17.8,M,,*46
  ç@?Å¸     Å$GPGSA,A,3,08,10,15,18,20,21,23,24,27,32,,,1.8,1.0,1.4*39
$GPGSV,3,1,11,08,21,308,28,10,66,324,34,15,15,050,22,18,43,136,37*79
$GPGSV,3,2,11,20,62,059,21,21,10,315,22,23,62,048,30,24,33,079,26*72
$GPGSV,3,3,11,27,36,271,33,32,43,219,25,04,51,137,00*43
$GPVTG,187.4,T,178.8,M,000.0,N,0000.0,K*72
$GPRMC,173025,A,4008.1909,N,10506.9202,W,000.0,187.4,190301,008.7,E*6F
$GPGGA,173025,4008.1909,N,10506.9202,W,2,09,1.0,1532.5,M,-17.8,M,,*4C
$GPGSA,A,3,08,10,15,18,,21,23,24,27,32,,,1.9,1.0,1.6*38
$GPGSV,3,1,11,08,21,308,28,10,66,324,34,15,15,050,23,18,43,136,37*78
$GPGSV,3,2,11,20,62,059,21,21,10,315,22,23,62,048,30,24,33,079,26*72
$  +@@Gd¥     GPGSV,3,3,11,27,36,271,33,32,43,219,26,04,51,137,00*40
$GPVTG,187.4,T,178.8,M,000.0,N,0000.0,K*72
$GPRMC,173026,A,4008.1909,N,10506.9202,W,000.0,187.4,190301,008.7,E*6C
$GPGGA,173026,4008.1909,N,10506.9202,W,2,10,1.0,1532.5,M,-17.8,M,,*47
$GPGSA,A,3,08,10,15,18,20,21,23,24,27,32,,,1.8,1.0,1.4*39
$GPGSV,3,1,11,08,21,308,28,10,66,324,34,15,15,050,23,18,43,136,37*78
$GPGSV,3,2,11,20,62,059,21,21,10,315,22,23,62,048,30,24,33,079,26*72
$GPGSV,3,3,11,27,36,271,33,32,43,219,26,04,51,137,00*40
$GPVTG,187.4,T,178.8,M,000.0,N,0000.0,K*72
  ≈@@ÕÌ‹     π$GPRMC,173027,A,4008.1909,N,10506.9202,W,000.0,187.4,190301,008.7,E*6D
$GPGGA,173027,4008.1909,N,10506.9202,W,2,09,1.0,1532.5,M,-17.8,M,,*4E
$GPGSA,A,3,08,10,15,18,,21,23,24,27,32,,,1.9,1.0,1.6*38
$GPGSV,3,1,11,08,21,308,28,10,66,324,34,15,15,050,23,18,42,136,37*79
$GPGSV,3,2,11,20,62,059,21,21,10,315,22,23,62,048,30,24,33,079,26*72
$GPGSV,3,3,11,27,36,271,33,32,43,219,26,04,51,137,00*40
$GPVTG,187.4,T,178.8,M,000.0,N,0000.0,K*72
  ≈@ATu‰     π$GPRMC,173028,A,4008.1909,N,10506.9202,W,000.0,187.4,190301,008.7,E*62
$GPGGA,173028,4008.1909,N,10506.9202,W,2,09,1.0,1532.4,M,-17.8,M,,*40
$GPGSA,A,3,08,10,15,18,,21,23,24,27,32,,,1.9,1.0,1.6*38
$GPGSV,3,1,11,08,21,308,28,10,66,324,34,15,15,050,22,18,42,136,37*78
$GPGSV,3,2,11,20,62,059,20,21,10,315,22,23,62,048,30,24,33,079,26*73
$GPGSV,3,3,11,27,36,271,33,32,43,219,27,04,51,137,00*41
$GPVTG,187.4,T,178.8,M,000.0,N,0000.0,K*72
  «@A€Ë     ª$GPRMC,173029,A,4008.1909,N,10506.9202,W,000.0,187.4,190301,008.7,E*63
$GPGGA,173029,4008.1909,N,10506.9202,W,2,10,1.0,1532.4,M,-17.8,M,,*49
$GPGSA,A,3,08,10,15,18,20,21,23,24,27,32,,,1.8,1.0,1.4*39
$GPGSV,3,1,11,08,21,308,28,10,66,324,34,15,15,050,22,18,42,136,37*78
$GPGSV,3,2,11,20,62,059,20,21,10,315,22,23,62,048,30,24,33,079,26*73
$GPGSV,3,3,11,27,36,271,33,32,43,219,27,04,51,137,00*41
$GPVTG,187.4,T,178.8,M,000.0,N,0000.0,K*72
  «@Baà‰     ª$GPRMC,173030,A,4008.1909,N,10506.9202,W,000.0,187.4,190301,008.7,E*6B
$GPGGA,173030,4008.1909,N,10506.9202,W,2,10,1.0,1532.4,M,-17.8,M,,*41
$GPGSA,A,3,08,10,15,18,20,21,23,24,27,32,,,1.8,1.0,1.4*39
$GPGSV,3,1,11,08,21,308,28,10,66,324,34,15,15,050,22,18,42,136,37*78
$GPGSV,3,2,11,20,62,059,20,21,11,315,22,23,62,048,30,24,33,079,26*72
$GPGSV,3,3,11,27,36,271,33,32,43,219,27,04,51,137,00*41
$GPVTG,187.4,T,178.8,M,000.0,N,0000.0,K*72
  «@BË1∏     ª$GPRMC,173031,A,4008.1909,N,10506.9202,W,000.0,187.4,190301,008.7,E*6A
$GPGGA,173031,4008.1909,N,10506.9202,W,2,10,1.0,1532.4,M,-17.8,M,,*40
$GPGSA,A,3,08,10,15,18,20,21,23,24,27,32,,,1.8,1.0,1.4*39
$GPGSV,3,1,11,08,21,308,28,10,66,324,34,15,15,050,22,18,42,136,37*78
$GPGSV,3,2,11,20,62,059,20,21,11,315,22,23,62,048,30,24,33,079,26*72
$GPGSV,3,3,11,27,36,271,33,32,43,219,27,04,51,137,00*41
$GPVTG,187.4,T,178.8,M,000.0,N,0000.0,K*72
  «@Cn›,     ª$GPRMC,173032,A,4008.1909,N,10506.9202,W,000.0,187.4,190301,008.7,E*69
$GPGGA,173032,4008.1909,N,10506.9202,W,2,10,1.0,1532.4,M,-17.8,M,,*43
$GPGSA,A,3,08,10,15,18,20,21,23,24,27,32,,,1.8,1.0,1.4*39
$GPGSV,3,1,11,08,21,308,28,10,66,324,34,15,15,050,22,18,42,136,37*78
$GPGSV,3,2,11,20,62,059,20,21,11,315,22,23,62,048,30,24,33,079,26*72
$GPGSV,3,3,11,27,36,271,33,32,43,219,27,04,51,137,00*41
$GPVTG,187.4,T,178.8,M,000.0,N,0000.0,K*72
  ≈@CıÖd     π$GPRMC,173033,A,4008.1909,N,10506.9202,W,000.0,187.4,190301,008.7,E*68
$GPGGA,173033,4008.1909,N,10506.9202,W,2,09,1.0,1532.4,M,-17.8,M,,*4A
$GPGSA,A,3,08,10,15,18,,21,23,24,27,32,,,1.9,1.0,1.6*38
$GPGSV,3,1,11,08,21,308,28,10,66,324,34,15,15,050,22,18,42,136,37*78
$GPGSV,3,2,11,20,62,059,20,21,11,315,21,23,62,048,30,24,33,079,26*71
$GPGSV,3,3,11,27,36,271,33,32,43,219,27,04,51,137,00*41
$GPVTG,187.4,T,178.8,M,000.0,N,0000.0,K*72
  ≈@D|T     π$GPRMC,173034,A,4008.1909,N,10506.9202,W,000.0,187.4,190301,008.7,E*6F
$GPGGA,173034,4008.1909,N,10506.9202,W,2,09,1.0,1532.4,M,-17.8,M,,*4D
$GPGSA,A,3,08,10,15,18,,21,23,24,27,32,,,1.9,1.0,1.6*38
$GPGSV,3,1,11,08,21,308,28,10,66,324,34,15,15,050,22,18,42,136,37*78
$GPGSV,3,2,11,20,62,059,20,21,11,315,21,23,62,048,30,24,33,079,25*72
$GPGSV,3,3,11,27,36,271,33,32,43,219,27,04,51,137,00*41
$GPVTG,187.4,T,178.8,M,000.0,N,0000.0,K*72
  ≈@E≥$     π$GPRMC,173035,A,4008.1909,N,10506.9202,W,000.0,187.4,190301,008.7,E*6E
$GPGGA,173035,4008.1909,N,10506.9202,W,2,09,1.0,1532.4,M,-17.8,M,,*4C
$GPGSA,A,3,08,10,15,18,,21,23,24,27,32,,,1.9,1.0,1.6*38
$GPGSV,3,1,11,08,21,308,28,10,66,324,34,15,15,050,22,18,42,136,37*78
$GPGSV,3,2,11,20,62,059,20,21,11,315,21,23,62,048,30,24,33,079,25*72
$GPGSV,3,3,11,27,36,271,33,32,43,219,27,04,51,137,00*41
$GPVTG,187.4,T,178.8,M,000.0,N,0000.0,K*72
  «@Eâú     ª$GPRMC,173036,A,4008.1909,N,10506.9202,W,000.0,187.4,190301,008.7,E*6D
$GPGGA,173036,4008.1909,N,10506.9202,W,2,10,1.0,1532.4,M,-17.8,M,,*47
$GPGSA,A,3,08,10,15,18,20,21,23,24,27,32,,,1.8,1.0,1.4*39
$GPGSV,3,1,11,08,21,308,28,10,66,324,34,15,15,050,22,18,42,136,37*78
$GPGSV,3,2,11,20,62,059,20,21,11,315,21,23,62,048,30,24,33,079,24*73
$GPGSV,3,3,11,27,36,271,33,32,43,219,27,04,51,137,00*41
$GPVTG,187.4,T,178.8,M,000.0,N,0000.0,K*72
  ≈@FÖ     π$GPRMC,173037,A,4008.1909,N,10506.9202,W,000.0,187.4,190301,008.7,E*6C
$GPGGA,173037,4008.1909,N,10506.9202,W,2,09,1.0,1532.4,M,-17.8,M,,*4E
$GPGSA,A,3,08,10,15,18,,21,23,24,27,32,,,1.9,1.0,1.6*38
$GPGSV,3,1,11,08,21,308,28,10,66,324,34,15,15,050,22,18,42,136,37*78
$GPGSV,3,2,11,20,62,059,20,21,11,315,22,23,62,048,30,24,33,079,24*70
$GPGSV,3,3,11,27,36,271,33,32,43,219,27,04,51,137,00*41
$GPVTG,187.4,T,178.8,M,000.0,N,0000.0,K*72
  «@Fñ∞     ª$GPRMC,173038,A,4008.1909,N,10506.9202,W,000.0,187.4,190301,008.7,E*63
$GPGGA,173038,4008.1909,N,10506.9202,W,2,10,1.0,1532.4,M,-17.8,M,,*49
$GPGSA,A,3,08,10,15,18,20,21,23,24,27,32,,,1.8,1.0,1.4*39
$GPGSV,3,1,11,08,21,308,28,10,66,324,34,15,15,050,22,18,42,136,37*78
$GPGSV,3,2,11,20,62,059,20,21,11,315,22,23,62,048,30,24,33,079,24*70
$GPGSV,3,3,11,27,36,271,33,32,43,219,27,04,51,137,00*41
$GPVTG,187.4,T,178.8,M,000.0,N,0000.0,K*72
  «@GπX     ª$GPRMC,173039,A,4008.1909,N,10506.9202,W,000.0,187.4,190301,008.7,E*62
$GPGGA,173039,4008.1909,N,10506.9202,W,2,10,1.0,1532.4,M,-17.8,M,,*48
$GPGSA,A,3,08,10,15,18,20,21,23,24,27,32,,,1.8,1.0,1.4*39
$GPGSV,3,1,11,08,21,308,28,10,66,324,34,15,15,050,22,18,42,136,37*78
$GPGSV,3,2,11,20,62,059,20,21,11,315,22,23,62,048,30,24,33,079,24*70
$GPGSV,3,3,11,27,36,271,33,32,43,219,27,04,51,137,00*41
$GPVTG,187.4,T,178.8,M,000.0,N,0000.0,K*72
  ≈@G£Cl     π$GPRMC,173040,A,4008.1909,N,10506.9202,W,000.0,187.4,190301,008.7,E*6C
$GPGGA,173040,4008.1909,N,10506.9202,W,2,09,1.0,1532.4,M,-17.8,M,,*4E
$GPGSA,A,3,08,10,15,18,,21,23,24,27,32,,,1.9,1.0,1.6*38
$GPGSV,3,1,11,08,21,308,27,10,66,324,34,15,15,050,22,18,42,136,37*77
$GPGSV,3,2,11,20,62,059,20,21,11,315,22,23,62,048,30,24,33,079,24*70
$GPGSV,3,3,11,27,36,271,33,32,43,219,27,04,51,137,00*41
$GPVTG,187.4,T,178.8,M,000.0,N,0000.0,K*72
  «@H)Æ¸     ª$GPRMC,173041,A,4008.1909,N,10506.9202,W,000.0,187.4,190301,008.7,E*6D
$GPGGA,173041,4008.1909,N,10506.9202,W,2,10,1.0,1532.4,M,-17.8,M,,*47
$GPGSA,A,3,08,10,15,18,20,21,23,24,27,32,,,1.8,1.0,1.4*39
$GPGSV,3,1,11,08,21,308,27,10,66,324,34,15,15,050,22,18,42,136,37*77
$GPGSV,3,2,11,20,62,059,20,21,11,315,22,23,62,048,30,24,33,079,24*70
$GPGSV,3,3,11,27,36,271,33,32,43,219,27,04,51,137,00*41
$GPVTG,187.4,T,178.8,M,000.0,N,0000.0,K*72
  ≈@H∞Wú     π$GPRMC,173042,A,4008.1909,N,10506.9202,W,000.0,187.4,190301,008.7,E*6E
$GPGGA,173042,4008.1909,N,10506.9202,W,2,09,1.0,1532.4,M,-17.8,M,,*4C
$GPGSA,A,3,08,10,15,18,,21,23,24,27,32,,,1.9,1.0,1.6*38
$GPGSV,3,1,11,08,21,308,27,10,66,324,34,15,15,050,22,18,42,136,37*77
$GPGSV,3,2,11,20,62,059,20,21,11,315,22,23,62,048,30,24,33,079,23*77
$GPGSV,3,3,11,27,36,271,33,32,43,219,27,04,51,137,00*41
$GPVTG,187.4,T,178.8,M,000.0,N,0000.0,K*72
  ı@I6‡$     È$GPRMC,173043,A,4008.1909,N,10506.9202,W,000.0,187.4,190301,008.7,E*6F
$GPGGA,173043,4008.1909,N,10506.9202,W,2,10,1.0,1532.4,M,-17.8,M,,*45
$GPGSA,A,3,08,10,15,18,20,21,23,24,27,32,,,1.8,1.0,1.4*39
$GPGSV,3,1,11,08,21,308,27,10,66,324,34,15,15,050,22,18,42,136,37*77
$GPGSV,3,2,11,20,62,059,20,21,11,315,22,23,62,048,30,24,33,079,22*76
$GPGSV,3,3,11,27,36,271,33,32,43,219,27,04,51,137,00*41
$GPVTG,187.4,T,178.8,M,000.0,N,0000.0,K*72
$GPRMC,173044,A,4008.1909,N,10506.9202,W,000.0  c@IΩI     W,187.4,190301,008.7,E*68
$GPGGA,173044,4008.1909,N,10506.9202,W,2,10,1.0,1532.4,M,-17.8,M,,*42
$GPGSA,A,3,08,10,15,18,20,21,23,24,27,32,,,1.8,1.0,1.4*39
$GPGSV,3,1,11,08,21,308,27,10,66,324,34,15,15,050,22,18,42,136,37*77
$GPGSV,3,2,11,20,62,059,20,21,11,315,21,23,62,048,30,24,33,079,22*75
$GPGSV,3,3,11,27,36,271,33,32,43,219,26,04,51,137,00*40
$GPVTG,187.4,T,178.8,M,000.0,N,0000.0,K*72
$GPRMC,173045,A,4008.1909,N,10506.9202,W,000.0,187.4,190301,008.7,E*69
$GPGGA,173045,4008.1909,N,10506.9202,W,2,10,1.0,1532.5,M,-17.8,M,,*42
$GPGSA,A,3,08,10,15,18,20,21,23,24,27,32,,,1.8,1.0,1.4*39
  ∏@JC≤@     ¨$GPGSV,3,1,11,08,21,308,26,10,66,324,34,15,15,050,22,18,42,136,37*76
$GPGSV,3,2,11,20,62,059,20,21,11,315,20,23,62,048,30,24,33,079,22*74
$GPGSV,3,3,11,27,36,271,33,32,43,219,26,04,51,137,00*40
$GPVTG,187.4,T,178.8,M,000.0,N,0000.0,K*72
$GPRMC,173046,A,4008.1909,N,10506.9202,W,000.0,187.4,190301,008.7,E*6A
$GPGGA,173046,4008.1909,N,10506.9202,W,2,10,1.0,1532.5,M,-17.8,M,,*41
$GPGSA,A,3,08,10,15,18,20,21,23,24,27,32,,,1.8,1.0,1.4*39
$GPGSV,3,1,11,08,21,308,26,10,66,324,33,15,15,050,22,18,42,136,37*71
$GPGSV,3,2,11,20,62,059,20,21,11,315,20,23,62,048,30,24,33,079,22*74
$GPGSV,3,3,11,27,36,271,33,32,43,219,26,04,51,137,00*40
$GPVTG,187.4,T,178.8,M,000.0,N,0000.0,K*72
  «@J 3<     ª$GPRMC,173047,A,4008.1909,N,10506.9202,W,000.0,187.4,190301,008.7,E*6B
$GPGGA,173047,4008.1909,N,10506.9202,W,2,10,1.0,1532.5,M,-17.8,M,,*40
$GPGSA,A,3,08,10,15,18,20,21,23,24,27,32,,,1.8,1.0,1.4*39
$GPGSV,3,1,11,08,21,308,26,10,66,324,33,15,15,050,22,18,42,136,37*71
$GPGSV,3,2,11,20,62,059,21,21,11,315,20,23,62,048,31,24,33,079,21*77
$GPGSV,3,3,11,27,36,271,33,32,43,219,26,04,51,137,00*40
$GPVTG,187.4,T,178.8,M,000.0,N,0000.0,K*72
  «@KP€∏     ª$GPRMC,173048,A,4008.1909,N,10506.9202,W,000.0,187.4,190301,008.7,E*64
$GPGGA,173048,4008.1909,N,10506.9202,W,2,10,1.0,1532.5,M,-17.8,M,,*4F
$GPGSA,A,3,08,10,15,18,20,21,23,24,27,32,,,1.8,1.0,1.4*39
$GPGSV,3,1,11,08,21,308,26,10,66,324,33,15,15,050,22,18,42,136,37*71
$GPGSV,3,2,11,20,62,059,21,21,11,315,20,23,62,048,31,24,33,079,20*76
$GPGSV,3,3,11,27,36,271,33,32,43,219,26,04,51,137,00*40
$GPVTG,187.4,T,178.8,M,000.0,N,0000.0,K*72
  «@K◊eÃ     ª$GPRMC,173049,A,4008.1909,N,10506.9202,W,000.0,187.4,190301,008.7,E*65
$GPGGA,173049,4008.1909,N,10506.9202,W,2,10,1.0,1532.5,M,-17.8,M,,*4E
$GPGSA,A,3,08,10,15,18,20,21,23,24,27,32,,,1.8,1.0,1.4*39
$GPGSV,3,1,11,08,21,308,25,10,66,324,33,15,15,050,22,18,42,136,37*72
$GPGSV,3,2,11,20,62,059,21,21,11,315,20,23,62,048,31,24,33,079,20*76
$GPGSV,3,3,11,27,36,271,33,32,43,219,26,04,51,137,00*40
$GPVTG,187.4,T,178.8,M,000.0,N,0000.0,K*72
  «@L^p     ª$GPRMC,173050,A,4008.1909,N,10506.9202,W,000.0,187.4,190301,008.7,E*6D
$GPGGA,173050,4008.1909,N,10506.9202,W,2,10,1.0,1532.5,M,-17.8,M,,*46
$GPGSA,A,3,08,10,15,18,20,21,23,24,27,32,,,1.8,1.0,1.4*39
$GPGSV,3,1,11,08,21,308,25,10,66,324,33,15,15,050,22,18,42,136,37*72
$GPGSV,3,2,11,20,62,059,21,21,11,315,20,23,62,048,31,24,33,079,20*76
$GPGSV,3,3,11,27,36,271,33,32,43,219,26,04,51,137,00*40
$GPVTG,187.4,T,178.8,M,000.0,N,0000.0,K*72
  «@L‰á     ª$GPRMC,173051,A,4008.1909,N,10506.9202,W,000.0,187.4,190301,008.7,E*6C
$GPGGA,173051,4008.1909,N,10506.9202,W,2,10,1.0,1532.5,M,-17.8,M,,*47
$GPGSA,A,3,08,10,15,18,20,21,23,24,27,32,,,1.8,1.0,1.4*39
$GPGSV,3,1,11,08,21,308,25,10,66,325,33,15,15,050,21,18,42,136,37*70
$GPGSV,3,2,11,20,62,059,21,21,11,315,20,23,62,048,31,24,33,079,20*76
$GPGSV,3,3,11,27,36,271,33,32,43,219,26,04,51,137,00*40
$GPVTG,187.4,T,178.8,M,000.0,N,0000.0,K*72
  «@Mk$     ª$GPRMC,173052,A,4008.1909,N,10506.9202,W,000.0,187.4,190301,008.7,E*6F
$GPGGA,173052,4008.1909,N,10506.9202,W,2,10,1.0,1532.5,M,-17.8,M,,*44
$GPGSA,A,3,08,10,15,18,20,21,23,24,27,32,,,1.8,1.0,1.4*39
$GPGSV,3,1,11,08,21,308,24,10,66,325,33,15,15,050,21,18,42,136,37*71
$GPGSV,3,2,11,20,62,059,21,21,11,315,20,23,62,048,31,24,33,079,19*7C
$GPGSV,3,3,11,27,36,271,33,32,43,219,26,04,51,137,00*40
$GPVTG,187.4,T,178.8,M,000.0,N,0000.0,K*72
  «@MÒ¬T     ª$GPRMC,173053,A,4008.1909,N,10506.9202,W,000.0,187.4,190301,008.7,E*6E
$GPGGA,173053,4008.1909,N,10506.9202,W,2,10,1.0,1532.5,M,-17.8,M,,*45
$GPGSA,A,3,08,10,15,18,20,21,23,24,27,32,,,1.8,1.0,1.4*39
$GPGSV,3,1,11,08,21,308,24,10,66,325,33,15,15,050,21,18,42,136,37*71
$GPGSV,3,2,11,20,62,059,21,21,11,315,19,23,62,048,31,24,33,079,18*77
$GPGSV,3,3,11,27,36,271,33,32,43,219,26,04,51,137,00*40
$GPVTG,187.4,T,178.8,M,000.0,N,0000.0,K*72
  ≈@Nx;Ä     π$GPRMC,173054,A,4008.1909,N,10506.9202,W,000.0,187.4,190301,008.7,E*69
$GPGGA,173054,4008.1909,N,10506.9202,W,2,09,1.0,1532.5,M,-17.8,M,,*4A
$GPGSA,A,3,08,10,15,18,20,21,23,,27,32,,,1.8,1.0,1.5*3E
$GPGSV,3,1,11,08,21,308,24,10,66,325,33,15,15,050,21,18,42,136,37*71
$GPGSV,3,2,11,20,62,059,21,21,11,315,19,23,62,048,31,24,33,079,17*78
$GPGSV,3,3,11,27,36,271,33,32,43,219,26,04,51,137,00*40
$GPVTG,187.4,T,178.8,M,000.0,N,0000.0,K*72
  ≈@N˛§®     π$GPRMC,173055,A,4008.1909,N,10506.9202,W,000.0,187.4,190301,008.7,E*68
$GPGGA,173055,4008.1909,N,10506.9202,W,2,09,1.0,1532.5,M,-17.8,M,,*4B
$GPGSA,A,3,08,10,15,18,,21,23,24,27,32,,,1.9,1.0,1.6*38
$GPGSV,3,1,11,08,21,308,24,10,66,325,33,15,15,050,22,18,42,136,37*72
$GPGSV,3,2,11,20,62,059,21,21,11,315,19,23,62,048,31,24,33,079,17*78
$GPGSV,3,3,11,27,36,271,33,32,43,219,25,04,51,137,00*43
$GPVTG,187.4,T,178.8,M,000.0,N,0000.0,K*72
  ≈@OÖE      π$GPRMC,173056,A,4008.1909,N,10506.9202,W,000.0,187.4,190301,008.7,E*6B
$GPGGA,173056,4008.1909,N,10506.9202,W,2,09,1.0,1532.5,M,-17.8,M,,*48
$GPGSA,A,3,08,10,15,18,,21,23,24,27,32,,,1.9,1.0,1.6*38
$GPGSV,3,1,11,08,21,308,24,10,66,325,33,15,15,050,22,18,42,136,37*72
$GPGSV,3,2,11,20,62,059,21,21,11,315,19,23,62,048,31,24,33,079,17*78
$GPGSV,3,3,11,27,36,271,33,32,43,219,25,04,51,137,00*43
$GPVTG,187.4,T,178.8,M,000.0,N,0000.0,K*72
  ≈@PÚÄ     π$GPRMC,173057,A,4008.1909,N,10506.9202,W,000.0,187.4,190301,008.7,E*6A
$GPGGA,173057,4008.1909,N,10506.9202,W,2,09,1.0,1532.5,M,-17.8,M,,*49
$GPGSA,A,3,08,10,15,18,,21,23,24,27,32,,,1.9,1.0,1.6*38
$GPGSV,3,1,11,08,21,308,23,10,66,325,33,15,15,050,22,18,42,136,37*75
$GPGSV,3,2,11,20,62,059,21,21,11,315,19,23,62,048,31,24,33,079,17*78
$GPGSV,3,3,11,27,36,271,33,32,43,219,25,04,51,137,00*43
$GPVTG,187.4,T,178.8,M,000.0,N,0000.0,K*72
  ≈@PI/¬     π$GPRMC,173058,A,4008.1909,N,10506.9202,W,000.0,187.4,190301,008.7,E*65
$GPGGA,173058,4008.1909,N,10506.9202,W,2,09,1.0,1532.5,M,-17.8,M,,*46
$GPGSA,A,3,08,10,15,18,,21,23,24,27,32,,,1.9,1.0,1.6*38
$GPGSV,3,1,11,08,21,308,23,10,66,325,32,15,15,050,22,18,42,136,37*74
$GPGSV,3,2,11,20,62,059,20,21,11,315,19,23,62,048,31,24,33,079,17*79
$GPGSV,3,3,11,27,36,271,32,32,43,219,25,04,51,137,00*42
$GPVTG,187.4,T,178.8,M,000.0,N,0000.0,K*72
  ≈@Påyl     π$GPRMC,173059,A,4008.1909,N,10506.9202,W,000.0,187.4,190301,008.7,E*64
$GPGGA,173059,4008.1909,N,10506.9202,W,2,09,1.0,1532.5,M,-17.8,M,,*47
$GPGSA,A,3,08,10,15,18,20,21,23,,27,32,,,1.8,1.0,1.5*3E
$GPGSV,3,1,11,08,21,308,22,10,66,325,32,15,15,050,22,18,42,136,37*75
$GPGSV,3,2,11,20,62,059,20,21,11,315,19,23,62,048,32,24,33,079,17*7A
$GPGSV,3,3,11,27,36,271,32,32,43,219,24,04,51,137,00*43
$GPVTG,187.4,T,178.8,M,000.0,N,0000.0,K*72
  ˜@Pœƒ∫     Î$GPRMC,173100,A,4008.1909,N,10506.9202,W,000.0,187.4,190301,008.7,E*69
$GPGGA,173100,4008.1909,N,10506.9202,W,2,09,1.0,1532.5,M,-17.8,M,,*4A
$GPGSA,A,3,08,10,15,18,20,21,23,,27,32,,,1.8,1.0,1.5*3E
$GPGSV,3,1,11,08,21,308,22,10,66,325,32,15,15,050,22,18,42,136,37*75
$GPGSV,3,2,11,20,62,059,20,21,11,315,20,23,62,048,32,24,33,079,16*71
$GPGSV,3,3,11,27,36,271,32,32,43,219,24,04,51,137,00*43
$GPVTG,187.4,T,178.8,M,000.0,N,0000.0,K*72
$PGRMT,GPS 18x-LVC software ver. 3.90,,,,,,,,*65
  ≈@QO™     π$GPRMC,173101,A,4008.1909,N,10506.9202,W,000.0,187.4,190301,008.7,E*68
$GPGGA,173101,4008.1909,N,10506.9202,W,2,09,1.0,1532.5,M,-17.8,M,,*4B
$GPGSA,A,3,08,10,15,18,20,21,23,,27,32,,,1.8,1.0,1.5*3E
$GPGSV,3,1,11,08,21,308,21,10,66,325,32,15,15,050,22,18,42,136,37*76
$GPGSV,3,2,11,20,61,060,20,21,11,315,19,23,62,048,32,24,33,079,16*72
$GPGSV,3,3,11,27,36,271,32,32,43,219,24,04,51,137,00*43
$GPVTG,187.4,T,178.8,M,000.0,N,0000.0,K*72
  ≈@QVùJ     π$GPRMC,173102,A,4008.1909,N,10506.9202,W,000.0,187.4,190301,008.7,E*6B
$GPGGA,173102,4008.1909,N,10506.9202,W,2,09,1.0,1532.5,M,-17.8,M,,*48
$GPGSA,A,3,08,10,15,18,20,21,23,,27,32,,,1.8,1.0,1.5*3E
$GPGSV,3,1,11,08,21,308,21,10,66,325,32,15,15,050,22,18,42,136,37*76
$GPGSV,3,2,11,20,61,060,20,21,11,315,19,23,62,048,32,24,33,079,16*72
$GPGSV,3,3,11,27,36,271,32,32,43,219,24,04,51,137,00*43
$GPVTG,187.4,T,178.8,M,000.0,N,0000.0,K*72
  ≈@QôÛ2     π$GPRMC,173103,A,4008.1909,N,10506.9202,W,000.0,187.4,190301,008.7,E*6A
$GPGGA,173103,4008.1909,N,10506.9202,W,2,09,1.0,1532.5,M,-17.8,M,,*49
$GPGSA,A,3,08,10,15,18,,21,23,24,27,32,,,1.9,1.0,1.6*38
$GPGSV,3,1,11,08,21,308,20,10,66,325,32,15,15,050,22,18,42,136,37*77
$GPGSV,3,2,11,20,61,060,19,21,11,315,19,23,62,048,32,24,33,079,16*78
$GPGSV,3,3,11,27,36,271,32,32,43,219,24,04,51,137,00*43
$GPVTG,187.4,T,178.8,M,000.0,N,0000.0,K*72
  T@Q›<Ã     H$GPRMC,173104,A,4008.1909,N,10506.9203,W,000.0,187.4,190301,008.7,E*6C
$GPGGA,173104,4008.1909,N,10506.9203,W,2,09,1.0,1532.5,M,-17.8,M,,*4F
$GPGSA,A,3,08,10,15,18,20,21,23,,27,32,,,1.8,1.0,1.5*3E
$GPGSV,3,1,11,08,21,308,20,10,66,325,31,15,15,050,22,18,42,136,37*74
$GPGSV,3,2,11,20,61,060,19,21,11,315,19,23,61,048,32,24,33,079,16*7B
$GPGSV,3,3,11,27,36,271,32,32,43,219,24,04,51,137,00*43
$GPVTG,187.4,T,178.8,M,000.0,N,0000.0,K*72
$GPRMC,173105,A,4008.1909,N,10506.9203,W,000.0,187.4,190301,008.7,E*6D
$GPGGA,173105,4008.1909,N,10506.9203,W,2,09,1.0,1532.5,M,-17.8,M,,*4E
  —@R e÷     ≈$GPGSA,A,3,08,10,15,18,,21,23,24,27,32,,,1.9,1.0,1.6*38
$GPGSV,3,1,11,08,21,308,20,10,66,325,31,15,15,050,22,18,42,136,37*74
$GPGSV,3,2,11,20,61,060,19,21,11,315,19,23,61,048,32,24,33,078,16*7A
$GPGSV,3,3,11,27,36,271,31,32,43,219,24,04,51,137,00*40
$GPVTG,187.4,T,178.8,M,000.0,N,0000.0,K*72
$GPRMC,173106,A,4008.1909,N,10506.9203,W,000.0,187.4,190301,008.7,E*6E
$GPGGA,173106,4008.1909,N,10506.9203,W,2,09,1.0,1532.5,M,-17.8,M,,*4D
$GPGSA,A,3,08,10,15,18,,21,23,24,27,32,,,1.9,1.0,1.6*38
$GPGSV,3,1,11,08,21,308,19,10,66,325,31,15,15,050,22,18,42,136,37*7E
$GPGSV,3,2,11,20,61,060,18,21,11,315,19,23,61,048,32,24,33,078,16*7B
$GPGSV,3,3,11,27,36,271,31,32,43,219,24,04,51,137,00*40
$GPVTG,187.4,T  „@Rc∆2     ◊,178.8,M,000.0,N,0000.0,K*72
$GPRMC,173107,A,4008.1909,N,10506.9203,W,000.0,187.4,190301,008.7,E*6F
$GPGGA,173107,4008.1909,N,10506.9203,W,2,09,1.0,1532.5,M,-17.8,M,,*4C
$GPGSA,A,3,08,10,15,18,,21,23,24,27,32,,,1.9,1.0,1.6*38
$GPGSV,3,1,11,08,21,308,19,10,66,325,31,15,15,050,22,18,42,136,37*7E
$GPGSV,3,2,11,20,61,060,18,21,11,315,19,23,61,048,32,24,33,078,16*7B
$GPGSV,3,3,11,27,36,271,31,32,43,219,24,04,51,137,00*40
$GPVTG,187.4,T,178.8,M,000.0,N,0000.0,K*72
  ≈@Rß
Z     π$GPRMC,173108,A,4008.1909,N,10506.9203,W,000.0,187.4,190301,008.7,E*60
$GPGGA,173108,4008.1909,N,10506.9203,W,2,09,1.0,1532.5,M,-17.8,M,,*43
$GPGSA,A,3,08,10,15,18,,21,23,24,27,32,,,1.9,1.0,1.6*38
$GPGSV,3,1,11,08,21,308,20,10,66,325,31,15,15,050,22,18,42,136,37*74
$GPGSV,3,2,11,20,61,060,18,21,11,315,19,23,61,048,32,24,33,078,16*7B
$GPGSV,3,3,11,27,36,270,31,32,43,219,24,04,51,137,00*41
$GPVTG,187.4,T,178.8,M,000.0,N,0000.0,K*72
  ≈@RÍVF     π$GPRMC,173109,A,4008.1909,N,10506.9203,W,000.0,187.4,190301,008.7,E*61
$GPGGA,173109,4008.1909,N,10506.9203,W,2,09,1.0,1532.5,M,-17.8,M,,*42
$GPGSA,A,3,08,10,15,18,,21,23,24,27,32,,,1.9,1.0,1.6*38
$GPGSV,3,1,11,08,21,308,20,10,66,325,30,15,15,050,22,18,42,136,37*75
$GPGSV,3,2,11,20,61,060,18,21,11,315,19,23,61,048,32,24,33,078,16*7B
$GPGSV,3,3,11,27,36,270,31,32,43,219,24,04,51,137,00*41
$GPVTG,187.4,T,178.8,M,000.0,N,0000.0,K*72
  ≈@S-√D     π$GPRMC,173110,A,4008.1909,N,10506.9203,W,000.0,187.4,190301,008.7,E*69
$GPGGA,173110,4008.1909,N,10506.9203,W,2,09,1.0,1532.5,M,-17.8,M,,*4A
$GPGSA,A,3,08,10,15,18,,21,23,24,27,32,,,1.9,1.0,1.6*38
$GPGSV,3,1,11,08,21,308,20,10,66,325,30,15,15,050,23,18,42,136,37*74
$GPGSV,3,2,11,20,61,060,18,21,11,315,19,23,61,048,32,24,33,078,16*7B
$GPGSV,3,3,11,27,36,270,31,32,43,219,23,04,51,137,00*46
$GPVTG,187.4,T,178.8,M,000.0,N,0000.0,K*72
  ≈@Sp˛∂     π$GPRMC,173111,A,4008.1909,N,10506.9203,W,000.0,187.4,190301,008.7,E*68
$GPGGA,173111,4008.1909,N,10506.9203,W,2,09,1.0,1532.5,M,-17.8,M,,*4B
$GPGSA,A,3,08,10,15,18,,21,23,24,27,32,,,1.9,1.0,1.6*38
$GPGSV,3,1,11,08,21,308,20,10,66,325,30,15,15,050,23,18,42,136,37*74
$GPGSV,3,2,11,20,61,060,18,21,11,315,19,23,61,048,32,24,33,078,16*7B
$GPGSV,3,3,11,27,36,270,31,32,43,219,22,04,51,137,00*47
$GPVTG,187.4,T,178.8,M,000.0,N,0000.0,K*72
  ≈@S¥KR     π$GPRMC,173112,A,4008.1909,N,10506.9203,W,000.0,187.4,190301,008.7,E*6B
$GPGGA,173112,4008.1909,N,10506.9203,W,2,09,1.0,1532.5,M,-17.8,M,,*48
$GPGSA,A,3,08,10,15,18,,21,23,24,27,32,,,1.9,1.0,1.6*38
$GPGSV,3,1,11,08,21,308,19,10,66,325,30,15,15,050,23,18,42,136,38*71
$GPGSV,3,2,11,20,61,060,18,21,11,315,19,23,61,048,32,24,33,078,16*7B
$GPGSV,3,3,11,27,36,270,31,32,43,219,22,04,51,137,00*47
$GPVTG,187.4,T,178.8,M,000.0,N,0000.0,K*72
