
[ICM General Parameters]
MGI RWA Section Options=2.0.1 %04Y%02m%02d %02H%02M%S%25u*~|.%d*~|.,*~|.%#_13g
Data Stream Name=GPS GGA data
Version=0
Author=Davita
Description=GPS data 
Comments=
Date=3692156400
Time=51617.5058527
Location=
# of Records=2435

[Query Name]
MGI RWA Section Options=2.0.1 %04Y%02m%02d %02H%02M%S%25u*~|.%d*~|.,*~|.%#_13g
name=No Query

[No Query]
MGI RWA Section Options=2.0.1 %04Y%02m%02d %02H%02M%S%25u*~|.%d*~|.,*~|.%#_13g
null=0

[Bus Name]
MGI RWA Section Options=2.0.1 %04Y%02m%02d %02H%02M%S%25u*~|.%d*~|.,*~|.%#_13g
name=Serial

[Serial]
MGI RWA Section Options=2.0.1 %04Y%02m%02d %02H%02M%S%25u*~|.%d*~|.,*~|.%#_13g
Port=3
Baud Rate=115200
Data Bits=8
Parity=None
Stop Bits=10
Flow Control=0
Char/Record=0
Termination String=
ms Wait=995
Time-out (1000ms)=1000
Clear Buffer on Open?=FALSE

[Parser Name]
MGI RWA Section Options=2.0.1 %04Y%02m%02d %02H%02M%S%25u*~|.%d*~|.,*~|.%#_13g
name=Multi Sentence Parser

[Multi Sentence Parser]
MGI RWA Section Options=2.0.1 %04Y%02m%02d %02H%02M%S%25u*~|.%d*~|.,*~|.%#_13g
Sentences=<7>
Sentences 0.Sentence.Sentence ID=$GPRMC
Sentences 0.Sentence.Format String=$GPRMC,%f,%s,%f,%s,%f,%s,%s,%f,%f,%f,%s
Sentences 0.Sentence.Channels=<7>
Sentences 0.Sentence.Channels 0=UTC Time
Sentences 0.Sentence.Channels 1=Latitiude
Sentences 0.Sentence.Channels 2=Longititude
Sentences 0.Sentence.Channels 3=Course Over Ground
Sentences 0.Sentence.Channels 4=UTS Date of Pos
Sentences 0.Sentence.Channels 5=Magnetic Variation
Sentences 0.Sentence.Channels 6=
Sentences 0.Sentence.Enabled=<7>
Sentences 0.Sentence.Enabled 0=TRUE
Sentences 0.Sentence.Enabled 1=TRUE
Sentences 0.Sentence.Enabled 2=TRUE
Sentences 0.Sentence.Enabled 3=TRUE
Sentences 0.Sentence.Enabled 4=TRUE
Sentences 0.Sentence.Enabled 5=TRUE
Sentences 0.Sentence.Enabled 6=FALSE
Sentences 0.Sentence.Ignore Missing Sentences?=TRUE
Sentences 1.Sentence.Sentence ID=$GPGGA
Sentences 1.Sentence.Format String=$GPGGA,%2d%2d%2d,%f,%s,%f,%s,%f,%f,%f,%f,%f,%s,%s,%s
Sentences 1.Sentence.Channels=<10>
Sentences 1.Sentence.Channels 0=Hour
Sentences 1.Sentence.Channels 1=Minute
Sentences 1.Sentence.Channels 2=Second
Sentences 1.Sentence.Channels 3=Lat
Sentences 1.Sentence.Channels 4=Long
Sentences 1.Sentence.Channels 5=Quality
Sentences 1.Sentence.Channels 6=Satellites
Sentences 1.Sentence.Channels 7=Horizontal Dilution
Sentences 1.Sentence.Channels 8=Antenna Height
Sentences 1.Sentence.Channels 9=Geoidal Height
Sentences 1.Sentence.Enabled=<10>
Sentences 1.Sentence.Enabled 0=TRUE
Sentences 1.Sentence.Enabled 1=TRUE
Sentences 1.Sentence.Enabled 2=TRUE
Sentences 1.Sentence.Enabled 3=TRUE
Sentences 1.Sentence.Enabled 4=TRUE
Sentences 1.Sentence.Enabled 5=TRUE
Sentences 1.Sentence.Enabled 6=TRUE
Sentences 1.Sentence.Enabled 7=TRUE
Sentences 1.Sentence.Enabled 8=TRUE
Sentences 1.Sentence.Enabled 9=TRUE
Sentences 1.Sentence.Ignore Missing Sentences?=TRUE
Sentences 2.Sentence.Sentence ID=$GPGSA
Sentences 2.Sentence.Format String=$GPGSA,%s,%f,%f,%f,%f,%f,%f,%f,%f,%f,%f,%f,%f,%f,%f,%f,%s
Sentences 2.Sentence.Channels=<19>
Sentences 2.Sentence.Channels 0=Fix Type
Sentences 2.Sentence.Channels 1=PRN1
Sentences 2.Sentence.Channels 2=PRN2
Sentences 2.Sentence.Channels 3=PRN3
Sentences 2.Sentence.Channels 4=PRN4
Sentences 2.Sentence.Channels 5=PRN5
Sentences 2.Sentence.Channels 6=PRN6
Sentences 2.Sentence.Channels 7=PRN7
Sentences 2.Sentence.Channels 8=PRN8
Sentences 2.Sentence.Channels 9=PRN9
Sentences 2.Sentence.Channels 10=PRN10
Sentences 2.Sentence.Channels 11=PRN11
Sentences 2.Sentence.Channels 12=PRN12
Sentences 2.Sentence.Channels 13=Position Dilution
Sentences 2.Sentence.Channels 14=Horizontal Dilution
Sentences 2.Sentence.Channels 15=Vertical Dilution
Sentences 2.Sentence.Channels 16=
Sentences 2.Sentence.Channels 17=
Sentences 2.Sentence.Channels 18=
Sentences 2.Sentence.Enabled=<19>
Sentences 2.Sentence.Enabled 0=TRUE
Sentences 2.Sentence.Enabled 1=TRUE
Sentences 2.Sentence.Enabled 2=TRUE
Sentences 2.Sentence.Enabled 3=TRUE
Sentences 2.Sentence.Enabled 4=TRUE
Sentences 2.Sentence.Enabled 5=TRUE
Sentences 2.Sentence.Enabled 6=TRUE
Sentences 2.Sentence.Enabled 7=TRUE
Sentences 2.Sentence.Enabled 8=TRUE
Sentences 2.Sentence.Enabled 9=TRUE
Sentences 2.Sentence.Enabled 10=TRUE
Sentences 2.Sentence.Enabled 11=TRUE
Sentences 2.Sentence.Enabled 12=TRUE
Sentences 2.Sentence.Enabled 13=TRUE
Sentences 2.Sentence.Enabled 14=TRUE
Sentences 2.Sentence.Enabled 15=TRUE
Sentences 2.Sentence.Enabled 16=FALSE
Sentences 2.Sentence.Enabled 17=FALSE
Sentences 2.Sentence.Enabled 18=FALSE
Sentences 2.Sentence.Ignore Missing Sentences?=TRUE
Sentences 3.Sentence.Sentence ID=$GPGSV,3,1
Sentences 3.Sentence.Format String=$GPGSV,3,1,%f,%f,%f,%f,%f,%f,%f,%f,%f,%f,%f,%f,%f,%f,%f,%f,%s
Sentences 3.Sentence.Channels=<17>
Sentences 3.Sentence.Channels 0=Satellites in View
Sentences 3.Sentence.Channels 1=PRN 1
Sentences 3.Sentence.Channels 2=Sat Elev 1
Sentences 3.Sentence.Channels 3=Sat Az 1
Sentences 3.Sentence.Channels 4=Signal to Noise 1
Sentences 3.Sentence.Channels 5=PRN 2
Sentences 3.Sentence.Channels 6=Sat Elev 2
Sentences 3.Sentence.Channels 7=Sat Az 2
Sentences 3.Sentence.Channels 8=Signal to Noise 2
Sentences 3.Sentence.Channels 9=PRN 3
Sentences 3.Sentence.Channels 10=Sat Elev 3
Sentences 3.Sentence.Channels 11=Sat Az 3
Sentences 3.Sentence.Channels 12=Signal to Noise 3
Sentences 3.Sentence.Channels 13=PRN 4
Sentences 3.Sentence.Channels 14=Sat Elev 4
Sentences 3.Sentence.Channels 15=Sat Az 4
Sentences 3.Sentence.Channels 16=Signal to Noise 4
Sentences 3.Sentence.Enabled=<17>
Sentences 3.Sentence.Enabled 0=FALSE
Sentences 3.Sentence.Enabled 1=TRUE
Sentences 3.Sentence.Enabled 2=TRUE
Sentences 3.Sentence.Enabled 3=TRUE
Sentences 3.Sentence.Enabled 4=TRUE
Sentences 3.Sentence.Enabled 5=TRUE
Sentences 3.Sentence.Enabled 6=TRUE
Sentences 3.Sentence.Enabled 7=TRUE
Sentences 3.Sentence.Enabled 8=TRUE
Sentences 3.Sentence.Enabled 9=TRUE
Sentences 3.Sentence.Enabled 10=TRUE
Sentences 3.Sentence.Enabled 11=TRUE
Sentences 3.Sentence.Enabled 12=TRUE
Sentences 3.Sentence.Enabled 13=TRUE
Sentences 3.Sentence.Enabled 14=TRUE
Sentences 3.Sentence.Enabled 15=TRUE
Sentences 3.Sentence.Enabled 16=TRUE
Sentences 3.Sentence.Ignore Missing Sentences?=TRUE
Sentences 4.Sentence.Sentence ID=$GPGSV,3,2
Sentences 4.Sentence.Format String=$GPGSV,3,2,%f,%f,%f,%f,%f,%f,%f,%f,%f,%f,%f,%f,%f,%f,%f,%f,%s
Sentences 4.Sentence.Channels=<17>
Sentences 4.Sentence.Channels 0=Satellites in View
Sentences 4.Sentence.Channels 1=PRN 5
Sentences 4.Sentence.Channels 2=Sat Elev 5
Sentences 4.Sentence.Channels 3=Sat Az 5
Sentences 4.Sentence.Channels 4=Signal to Noise 5
Sentences 4.Sentence.Channels 5=PRN 6
Sentences 4.Sentence.Channels 6=Sat Elev 6
Sentences 4.Sentence.Channels 7=Sat Az 6
Sentences 4.Sentence.Channels 8=Signal to Noise 6
Sentences 4.Sentence.Channels 9=PRN 7
Sentences 4.Sentence.Channels 10=Sat Elev 7
Sentences 4.Sentence.Channels 11=Sat Az 7
Sentences 4.Sentence.Channels 12=Signal to Noise 7
Sentences 4.Sentence.Channels 13=PRN 8
Sentences 4.Sentence.Channels 14=Sat Elev 8
Sentences 4.Sentence.Channels 15=Sat Az 8
Sentences 4.Sentence.Channels 16=Signal to Noise 8
Sentences 4.Sentence.Enabled=<17>
Sentences 4.Sentence.Enabled 0=FALSE
Sentences 4.Sentence.Enabled 1=TRUE
Sentences 4.Sentence.Enabled 2=TRUE
Sentences 4.Sentence.Enabled 3=TRUE
Sentences 4.Sentence.Enabled 4=TRUE
Sentences 4.Sentence.Enabled 5=TRUE
Sentences 4.Sentence.Enabled 6=TRUE
Sentences 4.Sentence.Enabled 7=TRUE
Sentences 4.Sentence.Enabled 8=TRUE
Sentences 4.Sentence.Enabled 9=TRUE
Sentences 4.Sentence.Enabled 10=TRUE
Sentences 4.Sentence.Enabled 11=TRUE
Sentences 4.Sentence.Enabled 12=TRUE
Sentences 4.Sentence.Enabled 13=TRUE
Sentences 4.Sentence.Enabled 14=TRUE
Sentences 4.Sentence.Enabled 15=TRUE
Sentences 4.Sentence.Enabled 16=TRUE
Sentences 4.Sentence.Ignore Missing Sentences?=TRUE
Sentences 5.Sentence.Sentence ID=$GPGSV,3,3,
Sentences 5.Sentence.Format String=$GPGSV,3,3,%f,%f,%f,%f,%f,%f,%f,%f,%f,%f,%f,%f,%f,%f,%f,%f,%s
Sentences 5.Sentence.Channels=<17>
Sentences 5.Sentence.Channels 0=Total Number of Satellites
Sentences 5.Sentence.Channels 1=PRN 9
Sentences 5.Sentence.Channels 2=Sat Elev 9
Sentences 5.Sentence.Channels 3=Sat Az 9
Sentences 5.Sentence.Channels 4=Signal to Noise 9
Sentences 5.Sentence.Channels 5=PRN 10
Sentences 5.Sentence.Channels 6=Sat Elev 10
Sentences 5.Sentence.Channels 7=Sat Az 10
Sentences 5.Sentence.Channels 8=Signal to Noise 10
Sentences 5.Sentence.Channels 9=PRN 11
Sentences 5.Sentence.Channels 10=Sat Elev 11
Sentences 5.Sentence.Channels 11=Sat Az 11
Sentences 5.Sentence.Channels 12=Signal to Noise 11
Sentences 5.Sentence.Channels 13=PRN 12
Sentences 5.Sentence.Channels 14=Sat Elev 12
Sentences 5.Sentence.Channels 15=Sat Az 12
Sentences 5.Sentence.Channels 16=Signal to Noise 12
Sentences 5.Sentence.Enabled=<17>
Sentences 5.Sentence.Enabled 0=FALSE
Sentences 5.Sentence.Enabled 1=TRUE
Sentences 5.Sentence.Enabled 2=TRUE
Sentences 5.Sentence.Enabled 3=TRUE
Sentences 5.Sentence.Enabled 4=TRUE
Sentences 5.Sentence.Enabled 5=TRUE
Sentences 5.Sentence.Enabled 6=TRUE
Sentences 5.Sentence.Enabled 7=TRUE
Sentences 5.Sentence.Enabled 8=TRUE
Sentences 5.Sentence.Enabled 9=TRUE
Sentences 5.Sentence.Enabled 10=TRUE
Sentences 5.Sentence.Enabled 11=TRUE
Sentences 5.Sentence.Enabled 12=TRUE
Sentences 5.Sentence.Enabled 13=TRUE
Sentences 5.Sentence.Enabled 14=TRUE
Sentences 5.Sentence.Enabled 15=TRUE
Sentences 5.Sentence.Enabled 16=TRUE
Sentences 5.Sentence.Ignore Missing Sentences?=TRUE
Sentences 6.Sentence.Sentence ID=$GPVTG
Sentences 6.Sentence.Format String=$GPVTG,%d
Sentences 6.Sentence.Channels=<1>
Sentences 6.Sentence.Channels 0=GPVTG present?
Sentences 6.Sentence.Enabled=<1>
Sentences 6.Sentence.Enabled 0=TRUE
Sentences 6.Sentence.Ignore Missing Sentences?=TRUE

[Query]
MGI RWA Section Options=2.0.1 %04Y%02m%02d %02H%02M%S%25u*~|.%d*~|.,*~|.%#_13g
Value=1000

[Polynomial]
MGI RWA Section Options=2.0.1 %04Y%02m%02d %02H%02M%S%25u*~|.%d*~|.,*~|.%#_13g
Polynomials=<1>
Polynomials 0.Cluster.Instance=1/100th
Polynomials 0.Cluster.Polynomial=<2>0,0.01

[Scaling]
MGI RWA Section Options=2.0.1 %04Y%02m%02d %02H%02M%S%25u*~|.%d*~|.,*~|.%#_13g
Value=<3>
Value 0.Scaling.Channel=1
Value 0.Scaling.Scaling=Lookup Table
Value 0.Scaling.Instance=hello
Value 1.Scaling.Channel=Long
Value 1.Scaling.Scaling=Polynomial
Value 1.Scaling.Instance=1/100th
Value 2.Scaling.Channel=Lat
Value 2.Scaling.Scaling=Polynomial
Value 2.Scaling.Instance=1/100th

[Lookup Table]
MGI RWA Section Options=2.0.1 %04Y%02m%02d %02H%02M%S%25u*~|.%d*~|.,*~|.%#_13g
Tables=<2>
Tables 0.Cluster.Instance=table
Tables 0.Cluster.Table=<4>
Tables 0.Cluster.Table 0.Cluster.Raw Value=15
Tables 0.Cluster.Table 0.Cluster.Scaled Value=10
Tables 0.Cluster.Table 1.Cluster.Raw Value=30
Tables 0.Cluster.Table 1.Cluster.Scaled Value=11
Tables 0.Cluster.Table 2.Cluster.Raw Value=40
Tables 0.Cluster.Table 2.Cluster.Scaled Value=20
Tables 0.Cluster.Table 3.Cluster.Raw Value=70
Tables 0.Cluster.Table 3.Cluster.Scaled Value=25
Tables 1.Cluster.Instance=hello
Tables 1.Cluster.Table=<4>
Tables 1.Cluster.Table 0.Cluster.Raw Value=17
Tables 1.Cluster.Table 0.Cluster.Scaled Value=0
Tables 1.Cluster.Table 1.Cluster.Raw Value=2000
Tables 1.Cluster.Table 1.Cluster.Scaled Value=40
Tables 1.Cluster.Table 2.Cluster.Raw Value=5000
Tables 1.Cluster.Table 2.Cluster.Scaled Value=70
Tables 1.Cluster.Table 3.Cluster.Raw Value=300000
Tables 1.Cluster.Table 3.Cluster.Scaled Value=700

[Modbus]
MGI RWA Section Options=2.0.1 %04Y%02m%02d %02H%02M%S%25u*~|.%d*~|.,*~|.%#_13g
Port=0
Modbus Server Name=localhost
Serial/Ethernet=FALSE
Baud Rate=0
Serial Type=RTU
Unit ID=0
Parity=0
Input Channels=<0>
Swap Words?=FALSE

[Initializer Name]
MGI RWA Section Options=2.0.1 %04Y%02m%02d %02H%02M%S%25u*~|.%d*~|.,*~|.%#_13g
name=No Init

[String Init]
MGI RWA Section Options=2.0.1 %04Y%02m%02d %02H%02M%S%25u*~|.%d*~|.,*~|.%#_13g
String=$PGRMO,GPVTG,1*24carriage*~|.returnline*~|.feed

[No Init]
MGI RWA Section Options=2.0.1 %04Y%02m%02d %02H%02M%S%25u*~|.%d*~|.,*~|.%#_13g
null=0

[Output Name]
MGI RWA Section Options=2.0.1 %04Y%02m%02d %02H%02M%S%25u*~|.%d*~|.,*~|.%#_13g
name=No Output

[NI Analog Out]
MGI RWA Section Options=2.0.1 %04Y%02m%02d %02H%02M%S%25u*~|.%d*~|.,*~|.%#_13g
Device=cDAQ1Mod4
SE/Diff=FALSE
Channels=<3>
Channels 0.Channel.Channel=0
Channels 0.Channel.Range=-10.0 to 10.0 V
Channels 1.Channel.Channel=1
Channels 1.Channel.Range=-10.0 to 10.0 V
Channels 2.Channel.Channel=2
Channels 2.Channel.Range=-10.0 to 10.0 V
AD Write Time-out (s)=0
Channel Names=<3>
Channel Names 0=ao1
Channel Names 1=ao2
Channel Names 2=ao3
Enabled=<3>
Enabled 0=TRUE
Enabled 1=TRUE
Enabled 2=TRUE

[No Output]
MGI RWA Section Options=2.0.1 %04Y%02m%02d %02H%02M%S%25u*~|.%d*~|.,*~|.%#_13g
null=0

[NI Analog]
MGI RWA Section Options=2.0.1 %04Y%02m%02d %02H%02M%S%25u*~|.%d*~|.,*~|.%#_13g
Device=
SE/Diff=FALSE
Channels=<0>
AD Read Time-out (s)=0

[Serial Out]
MGI RWA Section Options=2.0.1 %04Y%02m%02d %02H%02M%S%25u*~|.%d*~|.,*~|.%#_13g
String=
Channel Names=<0>
Enabled=<0>

[Multiple Queries]
MGI RWA Section Options=2.0.1 %04Y%02m%02d %02H%02M%S%25u*~|.%d*~|.,*~|.%#_13g
Queries=<0>
Time Between Queries (ms)=0
Response Separator=

[Clock Time]
MGI RWA Section Options=2.0.1 %04Y%02m%02d %02H%02M%S%25u*~|.%d*~|.,*~|.%#_13g
UTC?=FALSE
   	#######
  √          ∑$GPRMC,212124,A,4008.1998,N,10506.9206,W,000.0,015.6,160501,008.7,E*66
$GPGGA,212124,4008.1998,N,10506.9206,W,2,08,1.0,1504.7,M,-17.8,M,,*42
$GPGSA,A,3,03,04,07,08,09,16,26,27,,,,,1.9,1.0,1.6*3B
$GPGSV,3,1,11,03,17,193,19,04,70,132,34,07,38,283,33,08,20,150,38*79
$GPGSV,3,2,11,09,67,307,31,16,49,051,32,26,18,047,30,27,32,110,43*77
$GPGSV,3,3,11,30,09,271,18,05,14,317,00,10,24,205,00*4B
$GPVTG,015.6,T,006.9,M,000.0,N,0000.0,K*73
  √?˜UÄ     ∑$GPRMC,212125,A,4008.1998,N,10506.9206,W,000.0,015.6,160501,008.7,E*67
$GPGGA,212125,4008.1998,N,10506.9206,W,2,08,1.0,1504.7,M,-17.8,M,,*43
$GPGSA,A,3,03,04,07,08,09,16,26,27,,,,,1.9,1.0,1.6*3B
$GPGSV,3,1,11,03,17,193,19,04,70,132,34,07,38,283,32,08,20,150,38*78
$GPGSV,3,2,11,09,67,307,31,16,49,051,32,26,18,047,30,27,32,110,43*77
$GPGSV,3,3,11,30,09,271,17,05,14,317,00,10,24,205,00*44
$GPVTG,015.6,T,006.9,M,000.0,N,0000.0,K*73
  √@Ê~@     ∑$GPRMC,212126,A,4008.1998,N,10506.9206,W,000.0,015.6,160501,008.7,E*64
$GPGGA,212126,4008.1998,N,10506.9206,W,2,08,1.0,1504.7,M,-17.8,M,,*40
$GPGSA,A,3,,04,07,08,09,16,26,27,30,,,,1.7,1.0,1.3*30
$GPGSV,3,1,11,03,17,193,18,04,70,132,33,07,38,283,32,08,20,150,38*7E
$GPGSV,3,2,11,09,67,307,31,16,49,051,32,26,18,047,30,27,32,110,43*77
$GPGSV,3,3,11,30,09,271,17,05,14,317,00,10,24,205,00*44
$GPVTG,015.6,T,006.9,M,000.0,N,0000.0,K*73
  √@G°¿     ∑$GPRMC,212127,A,4008.1998,N,10506.9206,W,000.0,015.6,160501,008.7,E*65
$GPGGA,212127,4008.1998,N,10506.9206,W,2,08,1.0,1504.7,M,-17.8,M,,*41
$GPGSA,A,3,03,04,07,08,09,16,26,27,,,,,1.9,1.0,1.6*3B
$GPGSV,3,1,11,03,17,193,18,04,70,132,33,07,38,283,31,08,20,150,37*72
$GPGSV,3,2,11,09,67,307,31,16,49,051,32,26,18,047,30,27,32,110,43*77
$GPGSV,3,3,11,30,09,271,17,05,14,317,00,10,24,205,00*44
$GPVTG,015.6,T,006.9,M,000.0,N,0000.0,K*73
  ≈@T¿     π$GPRMC,212128,A,4008.1998,N,10506.9206,W,000.0,015.6,160501,008.7,E*6A
$GPGGA,212128,4008.1998,N,10506.9206,W,2,09,0.9,1504.7,M,-17.8,M,,*47
$GPGSA,A,3,03,04,07,08,09,16,26,27,30,,,,1.6,0.9,1.3*3A
$GPGSV,3,1,11,03,17,193,19,04,70,132,33,07,38,283,31,08,20,150,37*73
$GPGSV,3,2,11,09,67,307,31,16,49,051,31,26,18,047,30,27,32,110,42*75
$GPGSV,3,3,11,30,09,271,17,05,14,317,00,10,24,205,00*44
$GPVTG,015.6,T,006.9,M,000.0,N,0000.0,K*73
  ≈@Ç      π$GPRMC,212129,A,4008.1998,N,10506.9206,W,000.0,015.6,160501,008.7,E*6B
$GPGGA,212129,4008.1998,N,10506.9206,W,2,09,0.9,1504.7,M,-17.8,M,,*46
$GPGSA,A,3,03,04,07,08,09,16,26,27,30,,,,1.6,0.9,1.3*3A
$GPGSV,3,1,11,03,17,193,19,04,70,132,33,07,38,283,31,08,20,150,37*73
$GPGSV,3,2,11,09,67,307,31,16,49,051,31,26,18,047,30,27,32,110,42*75
$GPGSV,3,3,11,30,09,271,17,05,14,317,00,10,24,205,00*44
$GPVTG,015.6,T,006.9,M,000.0,N,0000.0,K*73
  ≈@∂`     π$GPRMC,212130,A,4008.1997,N,10506.9206,W,000.0,015.6,160501,008.7,E*6C
$GPGGA,212130,4008.1997,N,10506.9206,W,2,09,0.9,1504.7,M,-17.8,M,,*41
$GPGSA,A,3,03,04,07,08,09,16,26,27,30,,,,1.6,0.9,1.3*3A
$GPGSV,3,1,11,03,17,193,19,04,70,132,32,07,38,283,31,08,20,150,37*72
$GPGSV,3,2,11,09,67,307,31,16,49,051,31,26,18,047,30,27,32,110,42*75
$GPGSV,3,3,11,30,09,271,17,05,14,317,00,10,24,205,00*44
$GPVTG,015.6,T,006.9,M,000.0,N,0000.0,K*73
  ≈@„ÈÄ     π$GPRMC,212131,A,4008.1997,N,10506.9206,W,000.0,015.6,160501,008.7,E*6D
$GPGGA,212131,4008.1997,N,10506.9206,W,2,09,0.9,1504.8,M,-17.8,M,,*4F
$GPGSA,A,3,03,04,07,08,09,16,26,27,30,,,,1.6,0.9,1.3*3A
$GPGSV,3,1,11,03,17,193,19,04,70,132,32,07,38,283,31,08,20,150,37*72
$GPGSV,3,2,11,09,67,307,31,16,49,051,31,26,18,047,30,27,32,110,42*75
$GPGSV,3,3,11,30,09,271,18,05,14,317,00,10,24,205,00*4B
$GPVTG,015.6,T,006.9,M,000.0,N,0000.0,K*73
  √@!â{¿     ∑$GPRMC,212132,A,4008.1997,N,10506.9206,W,000.0,015.6,160501,008.7,E*6E
$GPGGA,212132,4008.1997,N,10506.9206,W,2,08,1.0,1504.8,M,-17.8,M,,*45
$GPGSA,A,3,,04,07,08,09,16,26,27,30,,,,1.7,1.0,1.3*30
$GPGSV,3,1,11,03,17,193,19,04,70,132,32,07,38,283,31,08,20,150,37*72
$GPGSV,3,2,11,09,67,307,31,16,49,051,31,26,18,047,30,27,32,110,42*75
$GPGSV,3,3,11,30,09,271,18,05,14,317,00,10,24,205,00*4B
$GPVTG,015.6,T,006.9,M,000.0,N,0000.0,K*73
  ≈@#°z–     π$GPRMC,212133,A,4008.1997,N,10506.9206,W,000.0,015.6,160501,008.7,E*6F
$GPGGA,212133,4008.1997,N,10506.9206,W,2,09,0.9,1504.8,M,-17.8,M,,*4D
$GPGSA,A,3,03,04,07,08,09,16,26,27,30,,,,1.6,0.9,1.3*3A
$GPGSV,3,1,11,03,17,193,19,04,70,132,32,07,39,283,31,08,20,150,37*73
$GPGSV,3,2,11,09,67,307,31,16,49,051,31,26,18,047,30,27,32,110,42*75
$GPGSV,3,3,11,30,09,271,19,05,14,317,00,10,24,205,00*4A
$GPVTG,015.6,T,006.9,M,000.0,N,0000.0,K*73
  y@%π0     m$GPRMC,212134,A,4008.1997,N,10506.9206,W,000.0,015.6,160501,008.7,E*68
$GPGGA,212134,4008.1997,N,10506.9206,W,2,09,0.9,1504.8,M,-17.8,M,,*4A
$GPGSA,A,3,03,04,07,08,09,16,26,27,30,,,,1.6,0.9,1.3*3A
$GPGSV,3,1,11,03,17,193,19,04,70,132,32,07,39,283,31,08,21,150,37*72
$GPGSV,3,2,11,09,67,307,32,16,49,051,31,26,18,047,30,27,32,110,42*76
$GPGSV,3,3,11,30,09,271,19,05,14,317,00,10,24,205,00*4A
$GPVTG,015.6,T,006.9,M,000.0,N,0000.0,K*73
$GPRMC,212135,A,4008.1997,N,10506.9206,W,000.0,015.6,160501,008.7,E*69
$GPGGA,212135,4008.1997,N,10506.9206,W,2,09,0.9,1504.8,M,-17.8,M,,*4B
$GPGSA,A,3,03,04,07,08,09,16,26,27,30  |@'–î¿     p,,,,1.6,0.9,1.3*3A
$GPGSV,3,1,11,03,17,193,19,04,70,132,31,07,39,283,31,08,21,150,37*71
$GPGSV,3,2,11,09,68,307,32,16,49,051,31,26,18,047,30,27,32,110,42*79
$GPGSV,3,3,11,30,09,271,19,05,14,317,00,10,24,205,00*4A
$GPVTG,015.6,T,006.9,M,000.0,N,0000.0,K*73
$GPRMC,212136,A,4008.1997,N,10506.9206,W,000.0,015.6,160501,008.7,E*6A
$GPGGA,212136,4008.1997,N,10506.9206,W,2,09,0.9,1504.8,M,-17.8,M,,*48
$GPGSA,A,3,03,04,07,08,09,16,26,27,30,,,,1.6,0.9,1.3*3A
$GPGSV,3,1,11,03,17,193,19,04,70,132,31,07,39,283,31,08,21,150,37*71
$GPGSV,3,2,11,09,68,307,32,16,49,051,31,26,18,047,30,27,32,110,42*79
$GPGSV,3,3,11,30,09,271  @)ÁÜ‡     ,19,05,14,317,00,10,24,205,00*4A
$GPVTG,015.6,T,006.9,M,000.0,N,0000.0,K*73
$GPRMC,212137,A,4008.1997,N,10506.9206,W,000.0,015.6,160501,008.7,E*6B
$GPGGA,212137,4008.1997,N,10506.9206,W,2,09,0.9,1504.8,M,-17.8,M,,*49
$GPGSA,A,3,03,04,07,08,09,16,26,27,30,,,,1.6,0.9,1.3*3A
$GPGSV,3,1,11,03,17,193,19,04,70,132,30,07,39,283,31,08,21,150,37*70
$GPGSV,3,2,11,09,68,307,32,16,49,051,31,26,18,047,30,27,32,110,42*79
$GPGSV,3,3,11,30,09,271,19,05,14,317,00,10,24,205,00*4A
$GPVTG,015.6,T,006.9,M,000.0,N,0000.0,K*73
  ≈@+ˇHê     π$GPRMC,212138,A,4008.1997,N,10506.9206,W,000.0,015.6,160501,008.7,E*64
$GPGGA,212138,4008.1997,N,10506.9206,W,2,09,0.9,1504.8,M,-17.8,M,,*46
$GPGSA,A,3,03,04,07,08,09,16,26,27,30,,,,1.6,0.9,1.3*3A
$GPGSV,3,1,11,03,17,193,19,04,70,132,30,07,39,283,31,08,21,150,37*70
$GPGSV,3,2,11,09,68,307,32,16,49,051,31,26,18,047,30,27,32,110,42*79
$GPGSV,3,3,11,30,09,271,19,05,14,317,00,10,24,205,00*4A
$GPVTG,015.6,T,006.9,M,000.0,N,0000.0,K*73
  ≈@.J     π$GPRMC,212139,A,4008.1997,N,10506.9206,W,000.0,015.6,160501,008.7,E*65
$GPGGA,212139,4008.1997,N,10506.9206,W,2,09,0.9,1504.8,M,-17.8,M,,*47
$GPGSA,A,3,03,04,07,08,09,16,26,27,30,,,,1.6,0.9,1.3*3A
$GPGSV,3,1,11,03,17,193,19,04,70,132,30,07,39,283,31,08,21,150,37*70
$GPGSV,3,2,11,09,68,307,32,16,49,051,31,26,18,047,30,27,32,110,42*79
$GPGSV,3,3,11,30,09,271,20,05,14,317,00,10,24,205,00*40
$GPVTG,015.6,T,006.9,M,000.0,N,0000.0,K*73
  ≈@0úX     π$GPRMC,212140,A,4008.1997,N,10506.9206,W,000.0,015.6,160501,008.7,E*6B
$GPGGA,212140,4008.1997,N,10506.9206,W,2,09,0.9,1504.8,M,-17.8,M,,*49
$GPGSA,A,3,03,04,07,08,09,16,26,27,30,,,,1.6,0.9,1.3*3A
$GPGSV,3,1,11,03,17,193,19,04,70,132,30,07,39,283,31,08,21,150,37*70
$GPGSV,3,2,11,09,68,307,32,16,49,051,31,26,18,047,30,27,32,110,42*79
$GPGSV,3,3,11,30,09,271,21,05,14,317,00,10,24,205,00*41
$GPVTG,015.6,T,006.9,M,000.0,N,0000.0,K*73
  ≈@1#îò     π$GPRMC,212141,A,4008.1997,N,10506.9206,W,000.0,015.6,160501,008.7,E*6A
$GPGGA,212141,4008.1997,N,10506.9206,W,2,09,0.9,1504.9,M,-17.8,M,,*49
$GPGSA,A,3,03,04,07,08,09,16,26,27,30,,,,1.6,0.9,1.3*3A
$GPGSV,3,1,11,03,17,193,19,04,70,132,30,07,39,283,31,08,21,150,37*70
$GPGSV,3,2,11,09,68,307,32,16,49,051,31,26,18,047,30,27,32,110,42*79
$GPGSV,3,3,11,30,09,271,22,05,14,317,00,10,24,205,00*42
$GPVTG,015.6,T,006.9,M,000.0,N,0000.0,K*73
  ≈@2/B∞     π$GPRMC,212142,A,4008.1997,N,10506.9206,W,000.0,015.6,160501,008.7,E*69
$GPGGA,212142,4008.1997,N,10506.9206,W,2,09,0.9,1504.9,M,-17.8,M,,*4A
$GPGSA,A,3,03,04,07,08,09,16,26,27,30,,,,1.6,0.9,1.3*3A
$GPGSV,3,1,11,03,17,193,19,04,70,132,30,07,39,283,31,08,21,150,37*70
$GPGSV,3,2,11,09,68,307,32,16,49,051,31,26,18,047,30,27,32,110,41*7A
$GPGSV,3,3,11,30,09,271,23,05,14,317,00,10,24,205,00*43
$GPVTG,015.6,T,006.9,M,000.0,N,0000.0,K*73
  ≈@3;†     π$GPRMC,212143,A,4008.1997,N,10506.9206,W,000.0,015.6,160501,008.7,E*68
$GPGGA,212143,4008.1997,N,10506.9206,W,2,09,0.9,1504.9,M,-17.8,M,,*4B
$GPGSA,A,3,03,04,07,08,09,16,26,27,30,,,,1.6,0.9,1.3*3A
$GPGSV,3,1,11,03,17,193,20,04,70,132,30,07,39,283,31,08,21,150,37*7A
$GPGSV,3,2,11,09,68,307,32,16,49,051,31,26,18,047,30,27,32,110,41*7A
$GPGSV,3,3,11,30,09,271,23,05,14,317,00,10,24,205,00*43
$GPVTG,015.6,T,006.9,M,000.0,N,0000.0,K*73
  ≈@4F∫     π$GPRMC,212144,A,4008.1997,N,10506.9206,W,000.0,015.6,160501,008.7,E*6F
$GPGGA,212144,4008.1997,N,10506.9206,W,2,09,0.9,1504.9,M,-17.8,M,,*4C
$GPGSA,A,3,03,04,07,08,09,16,26,27,30,,,,1.6,0.9,1.3*3A
$GPGSV,3,1,11,03,17,193,21,04,70,132,30,07,39,283,31,08,21,150,37*7B
$GPGSV,3,2,11,09,68,307,32,16,49,051,31,26,18,047,30,27,32,110,41*7A
$GPGSV,3,3,11,30,09,271,23,05,14,317,00,10,24,205,00*43
$GPVTG,015.6,T,006.9,M,000.0,N,0000.0,K*73
  ≈@5RÕH     π$GPRMC,212145,A,4008.1997,N,10506.9206,W,000.0,015.6,160501,008.7,E*6E
$GPGGA,212145,4008.1997,N,10506.9206,W,2,09,0.9,1504.9,M,-17.8,M,,*4D
$GPGSA,A,3,03,04,07,08,09,16,26,27,30,,,,1.6,0.9,1.3*3A
$GPGSV,3,1,11,03,17,193,21,04,70,132,30,07,39,283,31,08,21,150,37*7B
$GPGSV,3,2,11,09,68,307,32,16,49,051,31,26,18,047,30,27,32,110,41*7A
$GPGSV,3,3,11,30,09,271,23,05,14,317,00,10,24,205,00*43
$GPVTG,015.6,T,006.9,M,000.0,N,0000.0,K*73
  ≈@6^œ0     π$GPRMC,212146,A,4008.1997,N,10506.9206,W,000.0,015.6,160501,008.7,E*6D
$GPGGA,212146,4008.1997,N,10506.9206,W,2,09,0.9,1504.9,M,-17.8,M,,*4E
$GPGSA,A,3,03,04,07,08,09,16,26,27,30,,,,1.6,0.9,1.3*3A
$GPGSV,3,1,11,03,17,193,21,04,70,132,30,07,39,283,31,08,21,150,37*7B
$GPGSV,3,2,11,09,68,307,32,16,49,051,31,26,18,047,30,27,32,110,41*7A
$GPGSV,3,3,11,30,09,271,23,05,14,317,00,10,24,205,00*43
$GPVTG,015.6,T,006.9,M,000.0,N,0000.0,K*73
  ≈@7jÏ      π$GPRMC,212147,A,4008.1997,N,10506.9206,W,000.0,015.6,160501,008.7,E*6C
$GPGGA,212147,4008.1997,N,10506.9206,W,2,09,0.9,1504.9,M,-17.8,M,,*4F
$GPGSA,A,3,03,04,07,08,09,16,26,27,30,,,,1.6,0.9,1.3*3A
$GPGSV,3,1,11,03,17,193,21,04,70,132,30,07,39,283,31,08,21,150,37*7B
$GPGSV,3,2,11,09,68,307,32,16,49,051,31,26,18,047,29,27,32,110,41*72
$GPGSV,3,3,11,30,09,271,24,05,14,317,00,10,24,205,00*44
$GPVTG,015.6,T,006.9,M,000.0,N,0000.0,K*73
  ≈@8v„0     π$GPRMC,212148,A,4008.1997,N,10506.9206,W,000.0,015.6,160501,008.7,E*63
$GPGGA,212148,4008.1997,N,10506.9206,W,2,09,0.9,1504.9,M,-17.8,M,,*40
$GPGSA,A,3,03,04,07,08,09,16,26,27,30,,,,1.6,0.9,1.3*3A
$GPGSV,3,1,11,03,17,193,21,04,70,132,30,07,39,283,31,08,21,150,37*7B
$GPGSV,3,2,11,09,68,307,32,16,49,051,31,26,18,047,29,27,32,110,41*72
$GPGSV,3,3,11,30,09,271,24,05,14,317,00,10,24,205,00*44
$GPVTG,015.6,T,006.9,M,000.0,N,0000.0,K*73
  ≈@9Çôê     π$GPRMC,212149,A,4008.1997,N,10506.9206,W,000.0,015.6,160501,008.7,E*62
$GPGGA,212149,4008.1997,N,10506.9206,W,2,09,0.9,1504.9,M,-17.8,M,,*41
$GPGSA,A,3,03,04,07,08,09,16,26,27,30,,,,1.6,0.9,1.3*3A
$GPGSV,3,1,11,03,17,193,21,04,70,132,30,07,39,283,31,08,21,150,37*7B
$GPGSV,3,2,11,09,68,307,32,16,49,051,31,26,18,047,29,27,32,110,41*72
$GPGSV,3,3,11,30,09,271,24,05,14,317,00,10,24,205,00*44
$GPVTG,015.6,T,006.9,M,000.0,N,0000.0,K*73
  ≈@:él®     π$GPRMC,212150,A,4008.1997,N,10506.9205,W,000.0,015.6,160501,008.7,E*69
$GPGGA,212150,4008.1997,N,10506.9205,W,2,09,0.9,1504.9,M,-17.8,M,,*4A
$GPGSA,A,3,03,04,07,08,09,16,26,27,30,,,,1.6,0.9,1.3*3A
$GPGSV,3,1,11,03,17,193,21,04,70,132,30,07,39,283,30,08,21,150,37*7A
$GPGSV,3,2,11,09,68,307,32,16,49,051,31,26,18,047,29,27,32,110,40*73
$GPGSV,3,3,11,30,09,271,24,05,14,317,00,10,24,205,00*44
$GPVTG,015.6,T,006.9,M,000.0,N,0000.0,K*73
  ≈@;ö]     π$GPRMC,212151,A,4008.1997,N,10506.9205,W,000.0,015.6,160501,008.7,E*68
$GPGGA,212151,4008.1997,N,10506.9205,W,2,09,0.9,1504.9,M,-17.8,M,,*4B
$GPGSA,A,3,03,04,07,08,09,16,26,27,30,,,,1.6,0.9,1.3*3A
$GPGSV,3,1,11,03,17,193,22,04,70,132,30,07,39,283,30,08,21,150,37*79
$GPGSV,3,2,11,09,68,307,32,16,49,051,31,26,18,047,29,27,32,110,40*73
$GPGSV,3,3,11,30,09,271,24,05,14,317,00,10,24,205,00*44
$GPVTG,015.6,T,006.9,M,000.0,N,0000.0,K*73
  ≈@<¶,‡     π$GPRMC,212152,A,4008.1997,N,10506.9205,W,000.0,015.6,160501,008.7,E*6B
$GPGGA,212152,4008.1997,N,10506.9205,W,2,09,0.9,1504.9,M,-17.8,M,,*48
$GPGSA,A,3,03,04,07,08,09,16,26,27,30,,,,1.6,0.9,1.3*3A
$GPGSV,3,1,11,03,17,193,22,04,70,132,30,07,39,283,30,08,21,150,37*79
$GPGSV,3,2,11,09,68,307,32,16,49,051,31,26,17,047,29,27,32,110,40*7C
$GPGSV,3,3,11,30,09,271,24,05,14,317,00,10,24,205,00*44
$GPVTG,015.6,T,006.9,M,000.0,N,0000.0,K*73
  ≈@=±æ8     π$GPRMC,212153,A,4008.1997,N,10506.9205,W,000.0,015.6,160501,008.7,E*6A
$GPGGA,212153,4008.1997,N,10506.9205,W,2,09,0.9,1504.9,M,-17.8,M,,*49
$GPGSA,A,3,03,04,07,08,09,16,26,27,30,,,,1.6,0.9,1.3*3A
$GPGSV,3,1,11,03,17,193,22,04,70,132,30,07,39,283,30,08,21,150,37*79
$GPGSV,3,2,11,09,68,307,32,16,49,051,30,26,17,047,29,27,32,110,40*7D
$GPGSV,3,3,11,30,09,271,24,05,14,317,00,10,24,205,00*44
$GPVTG,015.6,T,006.9,M,000.0,N,0000.0,K*73
  ≈@>Ωóx     π$GPRMC,212154,A,4008.1997,N,10506.9205,W,000.0,015.6,160501,008.7,E*6D
$GPGGA,212154,4008.1997,N,10506.9205,W,2,09,0.9,1505.0,M,-17.8,M,,*46
$GPGSA,A,3,03,04,07,08,09,16,26,27,30,,,,1.6,0.9,1.3*3A
$GPGSV,3,1,11,03,17,193,22,04,70,132,30,07,39,283,30,08,21,150,37*79
$GPGSV,3,2,11,09,68,307,33,16,49,051,30,26,17,047,28,27,32,110,40*7D
$GPGSV,3,3,11,30,09,271,24,05,14,317,00,10,24,205,00*44
$GPVTG,015.6,T,006.9,M,000.0,N,0000.0,K*73
  ≈@?…vÿ     π$GPRMC,212155,A,4008.1997,N,10506.9205,W,000.0,015.6,160501,008.7,E*6C
$GPGGA,212155,4008.1997,N,10506.9205,W,2,09,0.9,1505.0,M,-17.8,M,,*47
$GPGSA,A,3,03,04,07,08,09,16,26,27,30,,,,1.6,0.9,1.3*3A
$GPGSV,3,1,11,03,17,193,22,04,70,132,30,07,39,283,30,08,21,150,37*79
$GPGSV,3,2,11,09,68,307,33,16,49,051,30,26,17,047,28,27,32,110,39*73
$GPGSV,3,3,11,30,09,271,24,05,14,317,00,10,24,205,00*44
$GPVTG,015.6,T,006.9,M,000.0,N,0000.0,K*73
  ≈@@jÖ<     π$GPRMC,212156,A,4008.1997,N,10506.9205,W,000.0,015.6,160501,008.7,E*6F
$GPGGA,212156,4008.1997,N,10506.9205,W,2,09,0.9,1505.0,M,-17.8,M,,*44
$GPGSA,A,3,03,04,07,08,09,16,26,27,30,,,,1.6,0.9,1.3*3A
$GPGSV,3,1,11,03,17,193,22,04,70,132,30,07,39,283,30,08,21,150,37*79
$GPGSV,3,2,11,09,68,307,33,16,49,051,29,26,17,047,27,27,32,110,39*74
$GPGSV,3,3,11,30,09,271,24,05,14,317,00,10,24,205,00*44
$GPVTG,015.6,T,006.9,M,000.0,N,0000.0,K*73
  π@@ë¨     ≠$GPRMC,212157,A,4008.1997,N,10506.9205,W,000.0,015.6,160501,008.7,E*6E
$GPGGA,212157,4008.1997,N,10506.9205,W,2,09,0.9,1505.0,M,-17.8,M,,*45
$GPGSA,A,3,03,04,07,08,09,16,26,27,30,,,,1.6,0.9,1.3*3A
$GPGSV,3,1,11,03,17,193,22,04,70,132,30,07,39,283,30,08,21,150,37*79
$GPGSV,3,2,11,09,68,307,33,16,49,051,28,26,17,047,27,27,32,110,39*75
$GPGSV,3,3,11,30,09,271,24,05,14,317,00,10,24,205,00*44
$GPVTG,015.6,T,006.9,M,000.0,N,0000.0,K*73
$GPRMC,212158,A,4008.1997,N,10506.9205,W,000.0,015.6,160501,008.7,E*61
$GPGGA,212158,4008.1997,N,10506.9205,W,2,09,0.9,1505.0,M,-17.8,M,,*4A
$GPGSA,A,3,03,04,07,08,09,16,26,27,30,,,,1.6,0.9,1.3*3A
$GPGSV,3,1,11,03,17,193,23,04,70,132,30,07,3  @AvÅ8     s9,283,30,08,21,150,37*78
$GPGSV,3,2,11,09,68,307,33,16,49,051,28,26,17,047,27,27,32,110,39*75
$GPGSV,3,3,11,30,09,271,24,05,14,317,00,10,24,205,00*44
$GPVTG,015.6,T,006.9,M,000.0,N,0000.0,K*73
$GPRMC,212159,A,4008.1997,N,10506.9205,W,000.0,015.6,160501,008.7,E*60
$GPGGA,212159,4008.1997,N,10506.9205,W,2,09,0.9,1505.0,M,-17.8,M,,*4B
$GPGSA,A,3,03,04,07,08,09,16,26,27,30,,,,1.6,0.9,1.3*3A
$GPGSV,3,1,11,03,17,193,24,04,70,132,30,07,39,283,30,08,21,150,37*7F
$GPGSV,3,2,11,09,68,307,34,16,49,051,28,26,17,047,27,27,32,110,39*72
$GPGSV,3,3,11,30,09,271,25,05,14,317,00,10,24,205,00*45
$GPVTG,015.6,T,006.9,M,000.0,N,00